,Name,Address,Latitude,Longitude
0,Faithhouse Ministries Aberdeen Washington,"211 East Wishkah Aberdeen, Washington 98550",46.97515106000,-123.816108000000
1,Grays Harbor Youth Center Aberdeen Washington,"111 E. 4th Street Aberdeen, Washington 98520",46.97863388062,-123.821166992188
2,Union Gospel Mission of Grays Harbor Aberdeen Washington,"405 East Heron Aberdeen, Washington 98520",46.97521972656,-123.813240051270
3,Esther Women's Shelter Aberdeen Washington,"807 W 1st St Aberdeen, Washington 98520",46.97148510000,-123.828219200000
4,Volunteers of America Spokane - Crosswalk Youth Shelter Spokane Washington,"525 West Second Avenue Spokane, Washington 99201",47.65436172485,-117.419975280762
5,Hope House Spokane - Shelter for Women Spokane Washington,"111 W Third Ave Spokane, Washington 99201",47.65325240000,-117.414095500000
6,House of Charity - Catholic Charities Spokane Washington,"32 W Pacific Spokane, Washington 99201",47.65572357178,-117.412429809570
7,St. Margaret's Shelter Spokane Washington,"101 E. Hartson Spokane, Washington 99202",47.65025330000,-117.409210000000
8,The Salvation Army Emergency Family Shelter Spokane Washington,"204 E Indiana Ave Spokane, Washington 99207",47.67466000000,-117.407610000000
9,Union Gospel Mission (Spokane) Spokane Washington,"1224 E Trent Ave. Spokane, Washington 99202",47.66176224000,-117.391784000000
10,Truth Ministries Spokane Washington,"1910 E. Sprague Spokane, Washington 99202",47.65714645386,-117.382263183594
11,Anacortes Family Center Anacortes Washington,"1011 27th St, P. O. Box 681 Anacortes, Washington 98221",48.50020599365,-122.613700866699
12,Opportunity Council Oak Harbor Washington,"1791 NE 1st Ave Oak Harbor, Washington 98277",48.29865646362,-122.635635375977
13,Oasis Teen Shelter Mount Vernon Washington,"125 North Fift Street Mount Vernon, Washington 98273",48.42457580566,-122.338081359863
14,Friendship House Mount Vernon Washington,"1008 S. Third Street Mount Vernon, Washington 98273",48.41528320313,-122.336326599121
15,CADA - Domestic Violence Shelter and Services Oak Harbor Washington,"275 SE Pioneer Way # 102 Oak Harbor, Washington 98277",48.28782680000,-122.653960900000
16,Whatcom Housing Programs - For Youths Bellingham Washington,"1020 N State St Bellingham, Washington 98225",48.74558740000,-122.480895200000
17,The PAD - Northwest Youth Services For Youth Ages 13 - 17 Bellingham Washington,"1020 N. State St. Bellingham, Washington 98225",48.74558740000,-122.480895200000
18,YWCA Transitional Housing Bellingham Washington,"1026 N. Forest St. Bellingham, Washington 98225",48.74527730000,-122.478939000000
19,Lighthouse Mission Bellingham Washington,"910 West Holly Street Bellingham, Washington 98225",48.75492859000,-122.486854000000
20,LightHouse Mission Shelter Bellingham Washington,"1013 West Holly Street Bellingham, Washington 2932",48.75549780000,-122.488352000000
21,Hope House Multi Service Center - Homeless Services Only Bellingham Washington,"207 Kentucky Street Bellingham, Washington 98226",48.75795280000,-122.473052000000
22,Olympic Community Action Programs Port Townsend Washington,"823 Commerce Loop Port Townsend, Washington 98368",48.10550689697,-122.804794311523
23,"Anne Arundel County Department of Social Services, Homeless Services Annapolis Maryland","80 West Street Annapolis, Maryland 21401",38.97820282000,-76.495910600000
24,Light House - Homeless Prevention Support Annapolis Maryland,"10 Hudson St Annapolis, Maryland 21401",38.98413000000,-76.533790000000
25,YWCA of Annapolis and Anne Arundel County Domestic Violence Shelter Arnold Maryland,"1517 Ritchie Highway Arnold, Maryland 21012",39.03205490000,-76.502738900000
26,Chrysalis House Women's Treatment Center Crownsville Maryland,"1570 Crownsville Rd Crownsville, Maryland 21032",39.01967620850,-76.597953796387
27,Haven Ministries Chester Maryland,"PO Box 44 Chester, Maryland 21619",38.95231246948,-76.282669067383
28,Winter Relief for the Homeless Arundel House of Hope Glen Burnie Maryland,"511 S. Crain Highway Glen Burnie, Maryland 21061",39.15695953369,-76.629081726074
29,"Arundel House of Hope, Day Resource Center Glen Burnie Maryland","514 North Crain Highway Suite K Glen Burnie, Maryland 21061",39.17207718000,-76.620994500000
30,Safe Haven for Men - Arundel House of Hope Glen Burnie Maryland,"514 North Crain Highway Suite K Glen Burnie, Maryland 21061",39.17207718000,-76.620994500000
31,Women in Safe Haven - Arundel House of Hope Glen Burnie Maryland,"514 North Crain Highway Suite K Glen Burnie, Maryland 21061",39.17207718000,-76.620994500000
32,Sarah's House Fort Meade Maryland,"2015 20th Street Fort Meade, Maryland 20755",39.11763382000,-76.728538500000
33,Family Crisis Center Dundalk Maryland,"P. O. Box 3909 Dundalk, Maryland 21222",39.25066330000,-76.520518000000
34,Laurel Advocacy & Referral Services Laurel Maryland,"311 Laurel Avenue Laurel, Maryland 20707",39.10188293000,-76.847526500000
35,American Rescue Workers Baltimore Maryland,"1401 South Hanover Street Baltimore, Maryland 21230",39.27361679000,-76.614791800000
36,South Baltimore Station Baltimore Maryland,"140 W. West Street Baltimore, Maryland 21230",39.27618420000,-76.618445900000
37,Baltimore Outreach Services Emergency Shelter  Baltimore Maryland,"701 South Charles Street Baltimore, Maryland 21230",39.28074646000,-76.614456100000
38,Beans and Bread Outreach Center Baltimore Maryland,"400 S. Bond Street Baltimore, Maryland 21231",39.28629600000,-76.595761000000
39,Bridges To Housing Stability - Family Housing Assistance Columbia Maryland,"9520 Berger Road Suite 311 Columbia, Maryland 21046",39.17452620000,-76.842040900000
40,Helping Up Mission Baltimore Maryland,"1029 East Baltimore St Baltimore, Maryland 21202",39.29041610000,-76.602077000000
41,Karis Home Baltimore Maryland,"1228 E. Baltimore Street Baltimore, Maryland 21202",39.29143524000,-76.600036600000
42,Baltimore Rescue Mission Baltimore Maryland,"4 N Central Ave Baltimore, Maryland 21202",39.29175710000,-76.599901100000
43,"Helping Other People through Empowerment, Inc. Baltimore Maryland","1426 E. Fairmount Avenue Baltimore, Maryland 21231",39.29225540161,-76.597595214844
44,Women Affairs of Almumtahinah Home Inc(AMH) Baltimore Maryland,"P.O.BOX 1462 Baltimore, Maryland 21203",39.29000091553,-76.610000610352
45,"Bea Gaddy's Family Center, Inc. Baltimore Maryland","425 N Chester St Baltimore, Maryland 21231",39.29618230000,-76.587420000000
46,Bea Gaddy Family Center Homeless Services Baltimore Maryland,"425 North Chester Street Baltimore, Maryland 21231",39.29618073000,-76.587577800000
47,Mi Casa Su Casa Supportive Housing Program Baltimore Maryland,"411 Millington Ave. Baltimore, Maryland 21229",39.28106307983,-76.656608581543
48,Maryland Center for Veterans Education and Training Baltimore Maryland,"301 North High St Baltimore, Maryland 21202",39.29369700000,-76.606260000000
49,My Sister's Place Baltimore Maryland,"123 W. Mulberry Street Baltimore, Maryland 21201",39.29399108887,-76.617477416992
50,Our Daily Bread Baltimore Maryland,"411 Cathedral Street Baltimore, Maryland 21201",39.29473114000,-76.616676300000
51,Pleasant Housing Supportive Housing Baltimore Maryland,"10 N. Gilmor Street Baltimore, Maryland 21223",39.28885650635,-76.642677307129
52,Code Blue Shelter Baltimore - Weinberg Housing and Resource Center Baltimore Maryland,"620 Fallsway Baltimore, Maryland 21202",39.29740880000,-76.610619400000
53,Bon Secours Women's Resources And Day Shelter Baltimore Maryland,"10 North Pulaski Street Baltimore, Maryland 21223",39.28846741000,-76.650367700000
54,Project PLASE Main Office Baltimore Maryland,"3601 Old Frederick Road Baltimore, Maryland 21229",39.28324940000,-76.676773900000
55,Westside Emergency Men's Shelter Catonsville Maryland,"55 Wade Ave Catonsville, Maryland 21228",39.26686096000,-76.722106900000
56,Sarah's Hope Mount Street Baltimore Maryland,"1114 N Mount St Baltimore, Maryland 21217",39.30181590000,-76.645153300000
57,Turnaround Inc. - Domestic Violence Shelter Baltimore Maryland,"1800 N Charles St #404 Baltimore, Maryland 21201",39.30998960000,-76.616856000000
58,Project PLASE Baltimore Maryland,"1814 Maryland Avenue Baltimore, Maryland 21201",39.31015015000,-76.618019100000
59,Grassroots Crisis Intervention Family Shelter Program Columbia Maryland,"6700 Freetown Rd Columbia, Maryland 21044",39.18628440000,-76.878932300000
60,Randy Sands Men’s Shelter Columbia Maryland,"6700 Freetown Road Columbia, Maryland 21044",39.18628440000,-76.878932300000
61,Agape House Homeless Services Baltimore Maryland,"1501 North Dukeland Street Baltimore, Maryland 21223",39.30518723000,-76.663658100000
62,Manna House Baltimore Maryland,"435 E. 25th Street Baltimore, Maryland 21218",39.31795883000,-76.610168400000
63,Mission Possible Ministries Shelter For Men Baltimore Maryland,"1932 W North Ave Baltimore, Maryland 21203",39.30999300000,-76.649092000000
64,Grassroots Crisis Intervention - Men's And Women's Shelter Columbia Maryland,"6700 Freetown Road Columbia, Maryland 21044",39.18845367000,-76.879455500000
65,"Hyacinth Independent/Transitional Living Home, INC Baltimore Maryland","4605 Asbury Avenue Baltimore, Maryland 21230",39.33053400000,-76.560486200000
66,Marian House Baltimore Maryland,"949 Gorsuch Avenue Baltimore, Maryland 21218",39.32571411133,-76.603057861328
67,Calvert County Department of Social Services Prince Frederick Maryland,"200 Duke Street Prince Frederick, Maryland 20678",38.54048538000,-76.580688400000
68,Associated Catholic Charities Prince Frederick Maryland,"P.O. Box 779 Prince Frederick, Maryland 20678",38.54040145874,-76.584403991699
69,"Project ECHO, Inc. Emergency Shelter and Transitional Housing Prince Frederick Maryland","484 Main St Prince Frederick, Maryland 20678",38.53689110000,-76.580203400000
70,Muslimat Al Nisaa Baltimore Maryland,"5115 Liberty Heights Ave Baltimore, Maryland 21207",39.33302307129,-76.701850891113
71,Hands Together Cold Weather Shelter Arlington Washington,"PO Box 266 Arlington, Washington 98223",48.19871139526,-122.125144958496
72,Snohomish County Human Services Everett Washington,"Department 3000 Rockefeller Ave.  M/S 305 Everett, Washington 98201",47.98669815063,-122.199996948242
73,Cocoon House For Teens Everett Washington,"2929 Pine St Everett, Washington 98201",47.97804641724,-122.192001342773
74,Everett Gospel Mission Men's Shelter Everett Washington,"3711 Smith Ave Everett, Washington 98201",47.96857300000,-122.196500000000
75,Everett Gospel Mission Women and Children's Shelter Everett Washington,"5126 S 2nd Ave Everett, Washington 98203",47.95057000000,-122.195200000000
76,Housing Hope Everett Washington,"5830 Evergreen Way Everett, Washington 98203",47.94498200000,-122.217073000000
77,Fresh Start Housing of Washington Mukilteo Washington,"10924 Mukilteo Speedway, 230 Mukilteo, Washington 98275",47.89860916000,-122.291946000000
78,Arcadia Shelter Auburn Washington,"702 10th St Ne Auburn, Washington 98002",47.31666190000,-122.223575000000
79,Multi-Service Center & Shelter Federal Way Washington,"1200 S 336th St. Federal Way, Washington 98003",47.30083847000,-122.318054000000
80,Federal Way Day Center Federal Way ,"33505 13th Ave S #D Federal Way, Washington 98093",47.31696960000,-122.316660000000
81,REACH OUT Homeless Winter Shelter Program Kent Washington,"1229 W Smith St Kent, Washington 98032",47.38319000000,-122.249200000000
82,Home Program Kent WA Kent Washington,"1229 W Smith St Kent, Washington 98032",47.38323490000,-122.249251000000
83,ARISE Shelter Kent Kent ,"1229 W Smith St Kent, Washington 98032",47.38325200000,-122.249307000000
84,MDC - Housing For Homeless Tacoma Washington,"721 South Fawcett  Tacoma, Washington 98402",47.25655746460,-122.443099975586
85,Nativity House Day Shelter Tacoma Washington,"702 S 14th Street Tacoma, Washington 98405",47.24926800000,-122.446168000000
86,Tacoma Rescue Mission Tacoma Washington,"425 South Tacoma Way Tacoma, Washington 98402",47.23569460000,-122.439133900000
87,Access Point 4 Housing Tacoma Washington,"901 South 13th Street Tacoma, Washington 98405",47.25036590000,-122.448843100000
88,ARISE Shelter  Renton Renton Washington,"314 S 4th St Renton, Washington 98057",47.47835000000,-122.212348000000
89,REACH Center of Hope Renton Washington,"1055 S Grady Way, Level P2 Renton, Washington 98057",47.48287760000,-122.217066100000
90,Family Renewal Shelter Tacoma Washington,"6832 Pacific Avenue Tacoma, Washington  9840",47.19419980000,-122.434329000000
91,Seattle's Union Gospel Mission - Hope Place Shelter Seattle Washington,"3802 South Othello Street Seattle, Washington 98104",47.53730540000,-122.284020000000
92,"Mamma's Hands, House of Hope Preston Washington","P.O. Box 40464 Preston, Washington 98075",47.50735092000,-121.909347000000
93,Compass Housing Alliance’s Jan & Peter’s Place Women’s Shelter  Seattle Washington,"901 Rainier Ave S Seattle, Washington 98144",47.59401960000,-122.310641000000
94,Saint Martin dePorres Shelter Seattle Washington,"1561 Alaskan Way S. Seattle, Washington 98134",47.58966827000,-122.337997000000
95,Salvation Army William Booth Center Seattle Washington,"811 Maynard Ave. S. Seattle, Washington 98134",47.59560394000,-122.325202000000
96,Seattle Indian Center Seattle Washington,"1265 S. Main St. Seattle, Washington 98144",47.59969711000,-122.314498000000
97,Seattle's Union Gospel Mission - Shelter for Men Seattle Washington,"318 - 2nd Avenue Extension South Seattle, Washington 98104",47.59975815000,-122.329971000000
98,"Mamma's Hands, House of Hope Bellevue ","po box 40464 Bellevue, Washington 98015",47.61014970000,-122.201515000000
99,Downtown Emergency Service Center - DESC Seatle Seattle Washington,"515 3rd Ave S Seattle, Washington 98104",47.60023910000,-122.330391000000
100,Bread of Life Mission Seattle Washington,"97 South Main St Seattle, Washington 98194",47.60004044000,-122.334297000000
101,Compass Center - Compass Housing Alliance  Seattle Washington,"77 S Washington St Seattle, Washington 98104",47.60071182000,-122.335281000000
102,King County Men’s Winter Shelter  – 420 4th Avenue (Pets Welcomed) Seattle Washington,"420 4th Avenue Seattle, Washington 98104",47.60248300000,-122.329248000000
103,King County Men’s Winter Shelter  - 500 4th Avenue Seattle Washington,"500 4th Avenue Seattle, Washington 98104",47.60305590000,-122.329414000000
104,Seattle City Hall Shelter Seattle Washington,"600 4th Ave Seattle, Washington 98104",47.60384290000,-122.330045400000
105,Men's Eastside Winter Shelter Bellevue Washington,"515B 116th Ave NE Bellevue, Washington 98004",47.61471860000,-122.187818500000
106,YWCA Emergency Shelter Seattle Washington,"1118 Fifth Ave. Seattle, Washington 98101",47.60757828000,-122.332428000000
107,Salvation Army Women's Shelter Seattle Washington,"1101 Pike Seattle, Washington 98101",47.61344528000,-122.328613000000
108,Noel House Women's Referral Center Seattle Washington,"2030 3rd Ave Seattle, Washington 98101",47.61320350000,-122.341770000000
109,Mary's Place Seattle Seattle Washington,"1830 9th Ave Seattle, Washington 98101",47.61568930000,-122.333976000000
110,Congregations for the Homeless Eastside Winter Shelter Bellevue Washington,"1899  120th Ave NE Bellevue, Washington 98005",47.62620163000,-122.181266000000
111,Emergency Family Shelter Seattle Washington,"314 Bell Street Seattle, Washington 98121",47.61533000000,-122.344480000000
112,Mamma's Hands Fall City Washington,"27701 SE 26th Way Fall City, Washington 98024",47.58516693115,-121.969924926758
113,Jubilee Women's Center Seattle Washington,"620 18th Avenue East Seattle, Washington 98112",47.62508510000,-122.310523400000
114,Compass Housing Alliance’s Blaine Center Men’s Shelter Seattle Washington,"154 Denny Way Seattle, Washington 98109",47.61872030000,-122.353865000000
115,Salvation Army Service Extension Department Seattle Washington,"111 Queen Anne Ave N  #300 Seattle, Washington 98019",47.61883926000,-122.357002000000
116,Sacred Heart Shelter Seattle Washington,"232 Warren Ave N. Seattle, Washington 98109",47.62014008000,-122.353996000000
117,Sophia's Place Bellevue Washington,"3032 Bellevue Way NE Bellevue, Washington 98004",47.63830000000,-122.201070000000
118,Aloha Inn Seattle Washington,"1911 Aurora Avenue North Seattle, Washington 98109",47.63660180000,-122.344203000000
119,Roots Young Adult Shelter Seattle Washington,"1415 NE 43rd St Seattle, Washington 98105",47.65924430000,-122.312355000000
120,The New Bethlehem Day Center Kirkland Washington,"11920 Ne 80th St Suite 100 Kirkland, Washington 98033",47.67555200000,-122.181063000000
121,Eastside Emergency Shelter - The Sophia Way Kirkland Washington,"701 1st Street Kirkland, Washington 98033",47.68074000000,-122.208620000000
122,Welcome Home Society Lake Forest Park Washington,"18403 Ballinger Way Ne Lake Forest Park, Washington 98155",47.76023483276,-122.286010742188
123,New Way Ministries - Transitional Housing For Women Lynden Washington,"205 S. BC Ave. Suite 117 Lynden, Washington 98264",48.93849800000,-122.462594000000
124,Oasis Teen Shelter Bremerton Washington,"822 Burwell St Bremerton, Washington 98337",47.56523895264,-122.631195068359
125,Prison Mission Association Port Orchard Washington,"1774 South East Vale Road Port Orchard, Washington 98366",47.50844573975,-122.618827819824
126,Providence Community Care Center Olympia Washington," 225 State Ave. SE Olympia, Washington 98501",47.04569680000,-122.901693000000
127,Drexel House Olympia Washington," 604 Devoe St. SE Olympia, Washington 98501",47.04418840000,-122.860402000000
128,Mid-Point Place Men's Shelter Wenatchee Washington,"1707 Stella Ave Wenatchee, Washington 98801",47.44846343994,-120.336380004883
129,YWCA of Lewiston Lewiston Idaho,"300 Main St Lewiston, Idaho 83501",46.42147064000,-117.029266000000
130,Community Action Center Pullman Washington,"350 S E Fairmont Road Pullman, Washington 99163",46.71020126343,-117.178100585938
131,Sojourners' Alliance Moscow Idaho,"627 N Van Buren St Moscow, Idaho 83843",46.74007797000,-116.995941000000
132,Sunrise Outreach Center Yakima Washington,"221 E Martin Luther King Jr. Blvd. Yakima, Washington 98901",46.60565567017,-120.504905700684
133,Salvation Army of Yakima Yakima Washington,"310 N. 16th Ave Yakima, Washington 98902",46.60213088989,-120.530593872070
134,Rod's House - Drop In Youth Shelter Yakima Washington,"204 S Naches Avenue Yakima, Washington 98901",46.60060119629,-120.499099731445
135,YWCA Family Crisis Program Yakima Washington,"818 West Yakima Ave Yakima, Washington 98902",46.59844207764,-120.520912170410
136,Community House on Broadway Longview Washington,"1107 Broadway Longview, Washington 98632",46.13768386841,-122.931694030762
137,Love Overwhelming Emergency Shelter Kelso Washington,"305 Cowlitz Way Kelso, Washington 98626",46.14702100000,-122.908846000000
138,Gates of Grace Vancouver Washington,"Box 821201 Vancouver, Washington 98662",45.65471649170,-122.588752746582
139,Council for the Homeless Vancouver Washington,"2306 NE Andresen Road Suite A Vancouver, Washington 98661",45.63939285000,-122.601341000000
140,Tri-City Union Gospel Mission Pasco Washington,"112 N. 2nd Avenue Pasco, Washington 99301",46.23148345947,-119.088912963867
141,Benton Franklin Community Action Committee Pasco Washington,"720 W Court Street Pasco, Washington 99301",46.24116134644,-119.098320007324
142,Hood River Warming Shelter Hood River Oregon,"PO Box 656 Hood River, Oregon 97031",45.70539474487,-121.521461486816
143,Crossroads Housing Shelton Washington,"71 Sargison Loop Shelton, Washington 98584",47.20558430000,-123.098706700000
144,Mason County Homeless Shelter Shelton Washington,"212 N 1st St. Shelton, Washington 98584",47.21386337000,-123.099739000000
145,Emogene's Emergency Women's Shelter  (YWCA) Wenatchee Washington,"212 5th Street Wenatchee, Washington 98801",47.43049621582,-120.318687438965
146,Haven Of Hope Women's Shelter Wenatchee Washington,"202 South Franklin Ave Wenatchee, Washington 98801",47.42005538940,-120.322402954102
147,Bruce Housing Program Transitional Housing Wenatchee Washington,"206 Palouse Street Wenatchee, Washington 98801",47.42420959000,-120.312767000000
148,Wenatchee Hospitality House Wenatchee Washington,"1450 So. Wenatchee Avenue Wenatchee, Washington 98807",47.40608978271,-120.300033569336
149,St. Vincent De Paul Coeur d Alene Idaho,"108 E. Walnut Coeur d Alene, Idaho 83814",47.68803406000,-116.785339000000
150,Children's Village Coeur d Alene Idaho,"1350 West Hanley Coeur d Alene, Idaho 83814",47.72983170000,-116.803894000000
151,"Maggie's Place, The Mary House Coeur d'Alene Idaho","PO Box 3665 Coeur d'Alene, Idaho 83816",47.67020035000,-116.779998000000
152,Women's Center Coeur d Alene Idaho,"850 North 4th Street Coeur d Alene, Idaho 83814",47.68138504000,-116.780647000000
153,Astoria Rescue Mission Astoria Oregon,"62 W. Bond Astoria, Oregon 97103",46.19006729126,-123.843833923340
154,Serenity House of Clallam County Port Angeles Washington,"2321 W. 18th Port Angeles, Washington 98363",48.12319946289,-123.491996765137
155,Alternative To Violence Of The Palouse Moscow Idaho,"PO Box 8517 Moscow, Idaho 83843",46.82075119000,-117.039581000000
156,Noah's Ark Wapato Washington,"117 E 2nd St Wapato, Washington 98951",46.44667053223,-120.418930053711
157,Guadalupe House - Tacoma Catholic Worker Tucson Washington,"1417 South G Street Tucson, Washington 98405",38.80069530000,-76.892675300000
158,Transition Center at Prince George's House Capitol Heights Maryland,"603 Addison Road South Capitol Heights, Maryland 20743",38.88113021851,-76.896850585938
159,Community Ministry of PG County Warm Nights Shelter Seat Pleasant Maryland,"311 68th Place Seat Pleasant, Maryland 20743",38.89135361000,-76.904106100000
160,The Alexander Social Services Corporation Washington Washington DC,"4614 Benning Road Se # 103 Washington, Washington DC 20019",38.88678359985,-76.935821533203
161,801 East Men’s Shelter and Housing Washington District Of Col,"2700 Martin Luther King Blvd. SE Washington, District Of Col 20032",38.84949780000,-76.995894200000
162,Calvary Women's Services Washington Washington DC,"1217 Good Hope Road SE Washington, Washington DC 20002",38.86720275879,-76.988021850586
163,DC General Family Shelter Washington Washington DC,"1900 Massachusetts Avenue SE Washington, Washington DC 20003",38.88539123535,-76.972694396973
164,Sasha Bruce House Washington Washington DC,"741 8th Street SE Washington, Washington DC 20003",38.88319015503,-76.991523742676
165,Shepherd's Cove Capitol Heights Maryland,"1400 Doewood Lane Capitol Heights, Maryland 20743",38.91052628000,-76.926330500000
166,Shepherd's Cove Women's Shelter Capitol Heights Maryland,"1400 Doewood Lane Capitol Heights, Maryland 20743",38.91052627563,-76.926330566406
167,Hyacinth's Place - Transitional Housing For Women Washington Washington DC,"1060 Bladensburg Rd NE Washington, Washington DC 20002",38.90387610000,-76.981144000000
168,Blair Transitional Rehabilitation Program Washington Washington DC,"635 I Street Ne Washington, Washington DC 20001",38.90100097656,-76.997016906738
169,House of Imagene Shelter and Women's Center Washington Washington DC,"1110A 6Th Street Ne Suite 4 Washington, Washington DC 20002",38.90422058105,-76.998771667480
170,Washington DC Community For Creative Non Violence Shelter Washington Washington DC,"425 2nd Street Northwest Washington, Washington DC 20001",38.89544677734,-77.013236999512
171,Federal City Shelter Washington DC Washington Washington DC,"425 2nd St. NW Washington, Washington DC 20001",38.89544677734,-77.013236999512
172,Crummel Emergency Shelter for Men Washington Washington DC,"1901 Kendall Street, Ne Washington, Washington DC 20002",38.91303634644,-76.986946105957
173,Central Union Mission Washington Washington,"65 Massachusetts Ave NW Washington, Washington 20001",38.89863967896,-77.011108398438
174,Virginia Williams Family Resource Center Washington Washington DC,"920-A Rhode Island Avenue Ne Washington, Washington DC 20018",38.92243576050,-76.993103027344
175,Rachael's Women's Center - Day Center Washington Washington DC,"1222 11Th Street Nw Washington, Washington DC 20001",38.90632247925,-77.027061462402
176,Thrive DC Washington Washington DC,"1525 Newton Street NW Suite G1 Washington, Washington DC 20010",38.90674591064,-77.027946472168
177,Luther Place Night Shelter Washington Washington DC,"N Street Village 1333 N Street NW Washington, Washington DC 20005",38.90436172485,-77.031082153320
178,Prince George's County Family Crisis Center Shelter Brentwood Maryland,"3601 Taylor Street Brentwood, Maryland 20722",38.94138717651,-76.958961486816
179,Mickey Leland House Washington District Of Col,"455 - 457 Florida Avenue District Of Col， Washington DC 20001",38.91465740000,-77.017799100000
180,Bethany Women's Center Washington Washington DC,"1333 N Street NW Washington, Washington DC 20005",38.90725708008,-77.031188964844
181,The Arlington Homeless Services Unit Residential Program Center Arlington Virginia,"1554 Columbia Pike Arlington, Virginia 22204",38.86650466919,-77.071311950684
182,Casa Ruby Washington Washington DC,"2822 Georgia Avenue NW Washington, Washington DC 20001",38.92676544000,-77.023185700000
183,Salvation Army - The Grate Patrol Washington Washington DC,"1434 Harvard Street Nw Washington, Washington DC 20009",38.92615127563,-77.033653259277
184,Georgetown Ministry Center  Drop-In Center Washington Washington DC,"1041 Wisconsin Av Nw Washington, Washington DC 20007",38.90366744995,-77.062271118164
185,Park Road Transitional House - Coalition For The Homeless Washington Washington DC,"1318 Park Road Nw Washington, Washington DC 20011",38.93077468872,-77.030471801758
186,Christ House Temporary Residence Washington Washington DC,"1717 Columbia Road Nw Washington, Washington DC 20009",38.92475510000,-77.039787200000
187,La Casa Transitional Rehab Program Washington Washington DC,"1131 Spring Road NW Washington, Washington DC 20010",38.93643569946,-77.029159545898
188,Arlington Street People's Assistance Network (A-SPAN) Arlington Virginia,"2020-A N 14th St Arlington, Virginia 22206",38.88943720000,-77.083210100000
189,Bridges to Independence Arlington Arlington Virginia,"3103 9th Road North Arlington, Virginia 22201",38.88373566000,-77.094833300000
190,Coalition for the Homeless - Webster Transitional House Washington Washington DC,"4326 14Th Street Nw Washington, Washington DC 20011",38.94384002686,-77.033058166504
191,"Robert J. Fuller Transitional House Homeless Advocacy Assn., Inc. Waldorf Maryland","3470 Rockefeller Court Waldorf, Maryland 20602",38.61793137000,-76.909606900000
192,Carpenter's Shelter Alexandria Virginia,"5701-D Duke Street Alexandria, Virginia 22304",38.81664400000,-77.130617000000
193,Doorways for Women and Families Arlington Virginia,"4600 Fairfax Dr Arlington, Virginia 22210",38.88107200000,-77.117104000000
194,Bailey's Crossroads Community Shelter Falls Church Virginia,"3525 Moncure Avenue Falls Church, Virginia 22041",38.84793472000,-77.133331300000
195,Community Vision of Interfaith Works Silver Spring Maryland,"8210 Dixon Avenue Silver Spring, Maryland 20910",38.97974014000,-77.004623400000
196,Shepherd’s Table Silver Spring Maryland,"8106 Georgia Ave Silver Spring, Maryland 20910",38.99083490000,-77.027591000000
197,Homestretch Falls Church Virginia,"303 S Maple Ave Falls Church, Virginia 22406",38.88074500000,-77.174786000000
198,Bethesda Cares Day Shelter Bethesda Maryland,"7728 Woodmont Avenue Bethesda, Maryland 20814",38.98743439000,-77.096000600000
199,Charles County DSS LaPlata Maryland,"200 Kent Avenue LaPlata, Maryland 20646",38.53099060059,-76.974418640137
200,Charles County Department of Social Services La Plata Maryland," 200 Kent Avenue La Plata, Maryland 20646",38.53099060059,-76.974418640137
201,Catholic Charities Angel's Watch Shelter Hughesville Maryland,"PO Box 613 Hughesville, Maryland 20637",38.53262170000,-76.783855900000
202,Dorothy Day Place Women's Shelter Rockville Maryland,"5320 Marinelli Road Rockville, Maryland 20850",39.04725890000,-77.106516000000
203,Stepping Stones Shelter Rockville Maryland,"P.O. Box 712 Rockville, Maryland 20848",39.08000183000,-77.120002700000
204,The Hilda M. Barg Homeless Prevention Center Woodbridge Virginia,"14945 Jefferson Davis Highway Woodbridge, Virginia 22191",38.62663000000,-77.275425000000
205,Interfaith Works Women’s Center Rockville Maryland,"2 Taft Court Suite 100 Rockville, Maryland 20850",39.09387000000,-77.130490000000
206,Avery House Treatment Center For Women Halfway House Rockville Maryland,"14705 Avery Road Rockville, Maryland 20853",39.09885787964,-77.125183105469
207,Rainbow Place (Women Only) Rockville Maryland,"215 W. Montgomery Avenue Rockville, Maryland 20850",39.08448410000,-77.157760600000
208,Montgomery County HHS Rockville Maryland,"401 Hungerford Road Suite 500 Rockville, Maryland 20850",39.08879089355,-77.150505065918
209,Helping Hands Shelter Rockville Maryland,"622 N. Horners Lane Rockville, Maryland 20850",39.09429550000,-77.144126800000
210,Home Builders Care Assessment Center (HBCAC) Men's Emergency Shelter Rockville Maryland,"600-A East Gude Drive Rockville, Maryland 20850",39.10554886000,-77.144821100000
211,Chase Partnership Men's Shelter Rockville Maryland,"600 C East Gude Drive  Rockville, Maryland 20850",39.10554886000,-77.144821100000
212,Safe Havens Rockville Maryland,"600-B East Gude Drive Rockville, Maryland 20850",39.10627250000,-77.145180700000
213,Veterans Affairs Safe Havens Rockville Maryland,"600-B East Gude Drive Rockville, Maryland 20850",39.10627250000,-77.145180700000
214,Montgomery County Coalition for the Homeless Rockville Maryland,"600-B East Gude Drive Rockville, Maryland 20850",39.10786056519,-77.142173767090
215,Elect Ladies Transition Home Woodbridge Virginia,"16342 Boatswain Circle Woodbridge, Virginia 22191",38.59604000000,-77.281240000000
216,Bradley Angle House Portland Oregon,"5432 N. Albina Ave Portland, Oregon 97217",45.56243550000,-122.674750000000
217,United States Mission Portland Oregon,"4545 ne garfield ave Portland, Oregon 97211",45.55623245000,-122.662933000000
218,Transition Projects (TPI) Day Center Portland Oregon,"650 NW Irving Street Portland, Oregon 97209",45.52741660000,-122.677330000000
219,Portland Rescue Mission Portland Oregon,"111 W. Burnside St Portland, Oregon 97209",45.52329635620,-122.671562194824
220,Salvation Army Female Emergency Shelter Portland Oregon,"30 SW 2nd Ave Portland, Oregon 97204",45.52274460000,-122.672108000000
221,SAFES at Fairbridge - Salvation Army Female Emergency Shelter Portland Oregon,"30 SW 2nd Ave Portland, Oregon 97204",45.52274460000,-122.672108600000
222,VETS (Veterans Emergency Transitional Shelter)  Portland Oregon,"30 SW 2nd Ave. Portland, Oregon 97204",45.52275848389,-122.672294616699
223,City Team Ministries Portland Oregon,"526 SE Grand Ave. Portland, Oregon 97214",45.51892852783,-122.660583496094
224,Rose Haven Day Shelter for Women and Children Portland Oregon,"627 NW 18th Avenue Portland, Oregon 97209",45.52762500000,-122.689673000000
225,Goose Hollow Family Shelter Portland Oregon,"1838 SW Jefferson Portland, Oregon 97201",45.51758956909,-122.693168640137
226,Daybreak Shelter Portland Portland Oregon,"12350 SE Powell Blvd.  Portland, Oregon 97236",45.49700164795,-122.535774230957
227,My Father's House Community Shelter Gresham Oregon,"5003 W Powell Blvd Gresham, Oregon 97030",45.49282010000,-122.482620000000
228,Northwest Housing Alternatives Milwaukie Oregon,"2316 SE Willard Street Milwaukie, Oregon 97222",45.44038800000,-122.637494000000
229,Road to Hope Maternity Home  Beaverton  Oregon,"2850 SW Cedar Hills Blvd Beaverton , Oregon 97005",45.49918300000,-122.806080000000
230,Good Neighbor Center Tigard Oregon,"11130 SW Greenburg Rd.  Tigard, Oregon 97223",45.43982697000,-122.779350000000
231,The Father's Heart Ministry Day Shelter Oregon City Oregon,"603 12th Street Oregon City, Oregon 97045",45.35992000000,-122.601060000000
232,Clackamas Women's Services Oregon City Oregon,"not disclosed Oregon City, Oregon 97045",45.35734176636,-122.606758117676
233,Community Action Family Shelter Hillsboro Oregon,"210 South East 12th Ave Hillsboro, Oregon 97214",45.52091217000,-122.969718000000
234,Family Promise Washington County Oregon Hillsboro ,"P O Box 4073 Hillsboro, Oregon 97123",45.52289390000,-122.989827000000
235,Walla Walla Rescue Mission Walla Walla Washington,"202 W. Birch St Walla Walla, Washington 99362",46.06325912476,-118.340347290039
236,Forest Grove Temporary Emergency Shelter Forest Grove Oregon,"2032 College Way Forest Grove, Oregon 97116",45.52059070000,-123.111499000000
237,Warming Center Bozeman Montana,"2104 Industrial Ave Bozeman, Montana 59715",45.70050811768,-111.033126831055
238,Battered Woman's Shelter Bozeman Montana,"109 E Main Bozeman, Montana 59715",45.67950057983,-111.035476684570
239,Family Promise of Gallatin Valley Bozeman Montana,"209 South Tracy Avenue Bozeman, Montana 59715",45.67711257935,-111.037384033203
240,Montana Rescue Mission for Men Billings Montana,"2822 Minnesota Ave Billings, Montana 59101",45.77963000000,-108.504730000000
241,The Women & Family Shelter Billings Montana,"2520 1st Ave No Billings, Montana 59101",45.78359222412,-108.502273559570
242,Montana Rescue Mission Women's and Children's Shelter Billings Montana,"2520 Minnesota Ave Billings, Montana 59101",45.78207780000,-108.500660000000
243,Butte Rescue Mission Butte Montana,"123 E Park St Butte, Montana 59701",46.00542831000,-112.522125000000
244,A  Ray of Hope Kalispell Montana,"46 5th Ave. West Kalispell, Montana 59901",48.19678115845,-114.320884704590
245,Samaritan House West Kalispell Montana,"124 9th Ave W West Kalispell, Montana 59901",48.19501495000,-114.326446000000
246,Rescue Mission Great Falls Montana,"326 2nd Ave S Great Falls, Montana 59403",47.50295257568,-111.302032470703
247,Rescue Mission Great Falls Montana,"326 2nd Ave S Great Falls, Montana 59403",47.50295257568,-111.302032470703
248,The Friendship Center Helena Montana,"1503 Gallatin Avenue Helena, Montana 59601",46.59911346436,-112.014694213867
249,Poverello Center - The Poverello Center Missoula Montana,"535 Ryman Missoula, Montana 59807",46.87495422363,-113.994308471680
250,Union Gospel Mission of Missoula (formely Missoula 3:16) Missoula Montana,"506-B Toole Avenue Missoula, Montana 59802",46.87821578979,-113.998069763184
251,Abused Adult Resource Center - Pam's House Bismarck North Dakota,"P.O. Box 5003 Bismarck, North Dakota 58502",46.80638122559,-100.778320312500
252,Ruth Meirs Hospitality House Bismarck North Dakota,"1800 E Broadway Ave Bismarck, North Dakota 58501",46.80651473999,-100.764320373535
253,Welcome House Bismarck North Dakota,"2910 East Broadway Ave. Ste. 40 Bismarck, North Dakota 58501",46.80644226074,-100.747009277344
254,Gladys Ray Shelter Fargo North Dakota,"1519 1st Ave S  Fargo, North Dakota 58103",46.87438201904,-96.805114746094
255,Youthworks Fargo North Dakota,"316 S. University Drive Fargo, North Dakota 58103",46.87121200562,-96.798042297363
256,New Life Center Fargo North Dakota,"1902 3rd Avenue North Fargo, North Dakota 58102",46.87916564941,-96.811523437500
257,Churches United for the Homeless - Micah's Mission Moorhead Minnesota,"1901 1st Ave N Moorhead, Minnesota 56560",46.87260056000,-96.770980800000
258,Dorothy Day House Moorhead Minnesota,"714 8th Street S. Moorhead, Minnesota 56560",46.86701584000,-96.767829900000
259,YWCA Cass Clay Fargo North Dakota,"3000 S. University Dr Fargo, North Dakota 58103",46.83465576172,-96.798332214355
260,Northlands Rescue Mission Grand Forks North Dakota,"420 Division Ave Grand Forks, North Dakota 58201",47.92195892000,-97.027748100000
261,YWCA Minot Center of Hope Minot North Dakota,"205 3rd Avenue SE Minot, North Dakota 58701",48.23341751099,-101.289962768555
262,Minot Men's Winter Refuge Minot North Dakota,"1112 43rd St SE Minot, North Dakota 58701",48.22516250610,-101.229240417481
263,Pettigrew Emergency Shelter Omaha Nebraska,"2723 Q St Omaha, Nebraska 68107",41.20528793000,-95.954040500000
264,Open Door Mission Omaha Nebraska,"2828 North 23rd Street East Omaha, Nebraska 68119",41.26064682000,-95.940467800000
265,Siena Francis House Omaha Nebraska,"1702 Nicholas Street Omaha, Nebraska 68102",41.27010727000,-95.938537600000
266,Micah House Council Bluffs Iowa,"1415 Ave J Council Bluffs, Iowa 51501",41.27019000000,-95.865450000000
267,New Visions Homeless Shelter Council Bluffs Council Bluffs Iowa,"1435 N. 15th St. Council Bluffs, Iowa 51501",41.27455500000,-95.865323000000
268,Jacob Rand Day Room Omaha Nebraska,"2828 N. 23rd St. East Omaha, Nebraska 68108",41.28370285034,-95.901321411133
269,Wetzel Homeless Shelter Benedict  Nebraska,"445 Work Ave Benedict , Nebraska 68316",41.00627517700,-97.603576660156
270,LifeHouse Fremont Nebraska,"723 North Broad Street Fremont, Nebraska 68025",41.43616486000,-96.498466400000
271,Hope Harbor Grand Island Nebraska,"610 W. Division Grand Island, Nebraska 68801",40.92100490000,-98.344348900000
272,Salvation Army Grand Island Emergency Shelter Grand Island Nebraska,"818 West 3rd Street Grand Island, Nebraska 68801",40.92272000000,-98.348220000000
273,Columbus Rescue Mission Columbus Nebraska,"1471 25th Ave Columbus, Nebraska 68601",41.43092346191,-97.357933044434
274,People's City Mission Lincoln Nebraska,"110 Q Street Lincoln, Nebraska 68501",40.81603622000,-96.719932500000
275,Community Action Partnership of Western Nebraska Shelter Gering Gering Nebraska," 3350 10th Street Gering, Nebraska 69341",41.84362167000,-103.660221670000
276,Crossroads Center Rescue Mission Hastings Hastings Nebraska,"702 W 14th St Hastings, Nebraska 68901",40.60068512000,-98.389701800000
277,Crossroads Rescue Mission Kearney Kearney Nebraska,"1404 E 39th Street Kearney, Nebraska 68847",40.71428780000,-99.062825800000
278,First Baptist Church Tecumseh Nebraska,"333 Jackson Street Tecumseh, Nebraska 68450",40.36934350000,-96.195086330000
279,Norfolk Rescue Mission Norfolk Nebraska,"111 North 9th Street Norfolk, Nebraska 68701",42.03356000000,-97.419530000000
280,The Connection Homeless Shelter North Platte Nebraska,"414 E. 6th. St. North Platte, Nebraska 69101",41.13780212000,-100.758567000000
281,Sioux City Gospel Mission Sioux City Iowa,"415 Bluff St Sioux City, Iowa 51103",42.49716949463,-96.413322448730
282,The Warming Shelter Sioux City Sioux City ,"916 Nebraska Street Sioux City, Iowa 51105",42.50015720000,-96.403544000000
283,Shesler Hall Transitional Housing For Women Sioux City Iowa,"1308 Nebraska Street Sioux City, Iowa 51105",42.50445667000,-96.403278330000
284,Crossroads Homeless Shelter Sioux City Iowa,"1307 Court St Sioux City, Iowa 51105",42.50411224000,-96.396492000000
285,Sicangu Oyate Tipi Homeless Shelter Rosebud  South Dakota,"PO Box 188 Rosebud , South Dakota 57570",43.25827026367,-100.822570800781
286,"CLUB, Inc., Drop-In Center Ammon Idaho","1904 Dakota Lane Ammon, Idaho 83406",43.47989900000,-111.946413000000
287,"CLUB, Inc Idaho Falls Idaho","620 S Woodruff Ave Idaho Falls, Idaho 83404",43.47914505000,-112.000755000000
288,The Ark  Idaho Falls Idaho,"255 E Street Idaho Falls, Idaho 83402",43.49527000000,-112.036840000000
289,Idaho Falls Rescue Mission Idaho Falls Idaho,"840 Park Avenue Idaho Falls, Idaho 83402",43.49637985000,-112.037803000000
290,Haven Temporary Shelter Idaho Falls Idaho,"2480 S. Yellowstone Idaho Falls, Idaho 83405",43.47687149000,-112.049995000000
291,Freedom LZ Veterans Transitional Housing Pocatello Idaho,"641 N. 8th Ave Pocatello, Idaho 83201",42.87253920000,-112.445171000000
292,Aid for Friends Pocatello Idaho,"653 S. 4th Ave Pocatello, Idaho 83201",42.86167526000,-112.439910000000
293,Bannock Youth - Bannock House Pocatello Idaho,"620 W. Fremont Pocatello, Idaho 83206",42.86240768000,-112.456665000000
294,Women's and Children's Alliance Boise Idaho,"720 W. Washington Boise, Idaho 83702",43.61910629000,-116.198768000000
295,River of Life - Boise Rescue Mission Boise Idaho,"575 S. 13th St Boise, Idaho 83702",43.61535645000,-116.214340000000
296,Boise Rescue Mission - City Light Home For Women & Children Boise Idaho,"1404 W. Jefferson Boise, Idaho 83702",43.62163925000,-116.208389000000
297,Interfaith Sanctuary Shelter Boise Idaho,"1620 W. River Street Boise, Idaho 83702",43.61868920000,-116.216748000000
298,Boise Rescue Mission - Ministry Center Boise Idaho,"308 S. 24th St.  Boise, Idaho 83702",43.62009429932,-116.219291687012
299,Salvation Army Housing and Homeless Services Boise Idaho,"4306 W State Boise, Idaho 83703",43.64536400000,-116.241980000000
300,Lighthouse Rescue Mission Nampa Idaho,"304 16th Ave. North Nampa, Idaho 83687",43.57980728000,-116.550247000000
301,The Salvation Army Family Shelter Nampa Idaho,"1412 4th St South Nampa, Idaho 83651",43.57521057000,-116.560020000000
302,"Valley Women & Children's Shelter in Nampa, ID Nampa Idaho","869 W. Corporate Ln. Nampa, Idaho 83651",43.59568700000,-116.591508000000
303,Hope's Door Caldwell Idaho,"1508 Hope Lane Caldwell, Idaho 83605",43.66293839000,-116.687350000000
304,Project DOVE Ontario Oregon,"585 NW 1st St. Ontario, Oregon 97914",44.03189086914,-116.963005065918
305,Good Samaritan Mission Jackson Wyoming,"285 West Pearl Avenue Jackson, Wyoming 83001",43.47870636000,-110.766181000000
306,Valley House Twin Falls Idaho,"507 Addison Ave. West Twin Falls, Idaho 83301",42.56370544434,-114.490028381348
307,Victory Home Shelter Twin Falls Idaho,"594 Washington St. S. Twin Falls, Idaho 83301",42.54050530000,-114.479540000000
308,The Shepherd's Home McCall Idaho,"260 Mission Street McCall, Idaho 83638",44.90808487000,-116.106041000000
309,Bonner County Homeless Task Force Sandpoint Idaho,"212 North 4th Ave. #160 Sandpoint, Idaho 83864",48.27426147000,-116.551673000000
310,A1 Q's Place of Peace Victorville California,"15846 Cazadero Road Victorville, California 92394",34.53872300000,-117.317815000000
311,As One Transitional Living Victorville California,"12759 Petaluma Rd. Victorville, California 92392",34.48240661621,-117.351661682129
312,Set Free Christian Fellowship and Discipleship Victorville Victorville California,"16949  D  Street Victorville, California 92392",34.53567886353,-117.292167663574
313,Home Again Shelter Northridge California,"8740 Canby Ave. Northridge, California 91325",34.22992500000,-118.534462000000
314,San Fernando Valley Rescue Mission Northridge California,"8756 Canby Ave. Northridge, California 91325",34.23030000000,-118.534460000000
315,Harvest Home Santa Monica California,"2118 Wilshire Blvd PMB 358 Santa Monica, California 90403",34.01945430000,-118.491191200000
316,A Better Living Permanent Housing and Supportive Services North Hills California,"9733 Columbus Avenue North Hills, California 91343",34.24742490000,-118.465682900000
317,The People Concern Access Center Santa Monica California,"505 Olympic Blvd. Santa Monica, California 90401",34.01378790000,-118.488722000000
318,New Directions Oasis for Veteran Women Los Angeles California,"11303 Wilshire Blvd, VA Bldg 116 Los Angeles, California 90073",34.05245972000,-118.458389000000
319,OPCC Safe Haven Cloverfield Services Center Santa Monica California,"1751 Cloverfield Santa Monica, California 90404",34.02595520000,-118.470291000000
320,Salvation Army Westwood Transitional Village Los Angeles California,"1401 S. Sepulveda Blvd Los Angeles, California 90025",34.05039978000,-118.446693000000
321,St Joseph Center Homeless Services And Meals Venice California,"204 Hampton Dr Venice, California 90291",33.99794200000,-118.478367000000
322,Community House Sylmar Sylmar California,"13770 Sayre Street Sylmar, California 91342",34.31042000000,-118.432870000000
323,LAFH - Los Angeles Family Housing North Hollywood California,"7843 Lankershim Boulevard North Hollywood, California 91601",34.21358010000,-118.388142000000
324,Bridge to Home Homeless Shelter Santa Clarita California,"23031 Drayton St. Santa Clarita, California 91355",34.41214970000,-118.537888000000
325,SPIRIT of Santa Paula Drop In Center Santa Paula ,"113 N. Mill Santa Paula, California 93060",34.35422000000,-119.061030000000
326,Kingdom Center  - Gabriel’s House Women's Shelter Oxnard California,"1450 S. Rose Avenue Oxnard, California 93033",34.18652990000,-119.159166100000
327,Hope of the Valley Rescue Mission Sun Valley California,"8165 San Fernando Rd Sun Valley, California 91352",34.21864600000,-118.368856000000
328,Family Promise of Santa Clarita Valley Canyon Country California,"18565 Soledad Canyon Road #133 Canyon Country, California 91351",34.41650009155,-118.456695556641
329,24-Hour OPTCC Shelter - Family Shelter Oakland California,"4700 International Boulevard Oakland, California 94601",37.77058792000,-122.210762000000
330,CityTeam Ministries Oakland Oakland California,"722 Washington St Oakland, California 94607",37.80035781860,-122.275032043457
331,A Safe Place - Shelter For Women - Domestic Violence Shelter Oakland California,"PO Box 23006 Oakland, California 94607",37.80914307000,-122.290908000000
332,Operation Dignity Emeryville California,"3850 San Pablo Ave #102 Emeryville, California 94608",37.82965050000,-122.279100000000
333,Berkeley Food and Housing Project Berkeley California,"1901 Fairview St Berkeley, California 94704",37.85099670000,-122.269808500000
334,Midway Shelter of Alameda San Leandro California,"1395 Bancroft Avenue San Leandro, California 94577",37.72641373000,-122.147735000000
335,"Berkeley Food and Housing, North County Women's Shelter Berkeley California","2140 Dwight Way Berkeley, California 94701",37.86394410000,-122.266065200000
336,Berkeley Food and Housing Men's Housing Program Berkeley California,"2140 Dwight Way Berkeley, California 94704",37.86391800000,-122.268242100000
337,Women's Daytime Drop-in Center Berkeley California,"2218 Acton Street Berkeley, California 94702",37.86635000000,-122.284350000000
338,Providence Church Shelter San Francisco California,"1601 McKinnon Avenue  San Francisco, California 94124",37.73586000000,-122.389690000000
339,MSC Shelter - SVDP San Francisco California,"525 Fifth Street San Francisco, California 94107",37.77773030000,-122.399832000000
340,Baker Places San Francisco California,"1000 Brannan St #401 San Francisco, California 94103",37.77006000000,-122.407610000000
341,CityTeam San Francisco  San Francisco California,"164 6th Street San Francisco, California 94103",37.78012848000,-122.407623000000
342,Holy Ghost Service Center San Francisco California,"3230 San Bruno Avenue San Francisco, California 94134",37.72117780000,-122.401177200000
343,Harrison House Berkeley California,"711 Harrison Berkeley, California 94710",37.88079000000,-122.304790000000
344,W.O.M.A.N. San Francisco California,"333 Valencia St. Ste. 251 San Francisco, California 94103",37.77180099000,-122.412002000000
345,Episcopal Community Services San Francisco California,"165 8th Street San Francisco, California 94103",37.77679443000,-122.412124000000
346,Community Housing Partnership San Francisco California,"20 Jones St San Francisco, California 94102",37.78147380000,-122.411886000000
347,Lark Inn San Francisco California,"869 Ellis St San Francisco, California 94102",37.78226060000,-122.412980000000
348,Compass Family Services San Francisco California,"37 Grove Street San Francisco, California 94103",37.77861000000,-122.415960000000
349,Tenderlion Housing Clinic - Property Management  San Francisco California,"449 Turk Street San Francisco, California 94102",37.78234863000,-122.416427000000
350,Mission Neighborhood Resource San Francisco California,"165 Capp St San Francisco, California 94110",37.76406150000,-122.418354000000
351,Rosalie House Emergency Shelter San Francisco California,"Undisclosed Location San Francisco, California ",37.77492905000,-122.419418000000
352,La Casa de Las Madres San Francisco California,"1663 Mission Street suite 225 San Francisco, California 94103",37.76747894000,-122.420066000000
353,Raphael House - Short Term Family Residential San Francisco California,"1065 Sutter Street San Francisco, California 94109",37.78793716000,-122.417839000000
354,Next Door Shelter - Episcopal Community Services San Francisco California,"1001 Polk Street San Francisco, California 94109",37.78616100000,-122.419801000000
355,St Joseph's Family Center - Catholic Charities San Francisco California,"899 Guerrero Street San Francisco, California 94110",37.75695419000,-122.423141000000
356,Diamond Youth Shelter - Larkin Street Youth Services San Francisco California,"536 Central Avenue San Francisco, California 94117",37.77458954000,-122.444305000000
357,Asian Women's Shelter (AWS) San Francisco California,"3543-18th Street Suite 19 San Francisco, California 94110",37.72909927000,-122.443450000000
358,Family Emergency Shelter Coalition (FESCO) Hayward ,"21455 Birch St #5 Hayward, California 94541",37.68108280000,-122.093640900000
359,FESCO - The Family Shelter Hayward California,"21455 Birch Street Hayward, California 94541",37.68108280000,-122.093640000000
360,South County Homeless Project Hayward California,"258 W A St Hayward, California 94541",37.66613680000,-122.103741000000
361,"Eden I & R, Inc Hayward California","570 B St Hayward, California 94541",37.66999350000,-122.090101200000
362,Safe Harbor Shelter South San Francisco California,"295 N. Access Road South San Francisco, California 94080",37.63990320000,-122.391800000000
363,Ruby's Place Hayward Hayward California,"1180 B Street Hayward, California 94541",37.67509810000,-122.079840000000
364,Family Emergency Shelter Hayward - FESCO Shelter Hayward California,"22671 3rd St Hayward, California 94541",37.67540040000,-122.076980000000
365,Nevin House - Anka Behavioral Health Inc Richmond California,"3215 Nevin Avenue Richmond, California 94804",37.92240143000,-122.340400000000
366,Images on the Rise Hayward California,"249 W. Jackson Street #560 Hayward, California 94544",37.65179000000,-122.090940000000
367,Daly City Community Service Center - Shelter Network Daly City California,"50 Hillcrest Dr. Daly City, California 94025",37.70626449585,-122.462913513184
368,GRIP Family Housing Program Richmond California,"165 22nd Street Richmond, California 94801",37.93357468000,-122.348770000000
369,Bay Area Rescue Mission - Women and Family Shelter Richmond California,"224 MacDonald Avenue Richmond, California 94801",37.93556213000,-122.367370000000
370,Bay Area Rescue Mission - Men's Shelter Richmond California,"200 MacDonald Avenue Richmond, California 94801",37.93556213000,-122.367523000000
371,HOME & HOPE Homeless Assistance Burlingame California,"1720 El Camino Real Suite 7 Burlingame, California 94010",37.59293746948,-122.380912780762
372,LifeMoves First Step for Families San Mateo California,"325 Villa Terrace San Mateo, California 94401",37.57569885000,-122.335022000000
373,West County Interim Housing Program - Brookside Shelter Richmond California,"847 C Brookside Dr. Richmond, California 94801",37.94169998000,-122.370399000000
374,Shelter Network Burlingame California,"1450 Chapin Avenue 2nd. Floor Burlingame, California 94010",37.57759094238,-122.351203918457
375,Trinity Center Walnut Creek California,"1271 S. California Blvd Walnut Creek, California 94596",37.89455290000,-122.062660000000
376,Pacifica Resource Center - Shelter Network Pacifica California,"1809 Palmetto Drive Pacifica, California 94044",37.63508987000,-122.491874000000
377,"SHELTER, Inc. of Contra Costa Martinez California","1815 Arnold Drive Martinez, California 94553",37.99499893188,-122.120201110840
378,STAND Domestic Violence  - RMC Concord California,"1410 Danzig Plaza Suite 200 Concord, California 94520",37.96952057000,-122.049491000000
379,Anka Behavioral Health Concord California,"1850 Gateway Blvd Concord, California 94520",37.97186279000,-122.042800000000
380,SAFE Place - Northern California Family Center Martinez California,"2244 Pacheco Boulevard Martinez, California 94553",38.01287079000,-122.121360000000
381,SIPS - Anka Behavioral Health Concord California,"1849 Willow Pass Road suite 205 Concord, California 94520",37.97481537000,-122.038093000000
382,Nierika House -Anka Behavioral Health Concord California,"1959 Solano Way Concord, California 94522",37.98569869995,-122.035697937012
383,Second Chance Newark CA Newark California,"6330 Thornton Ave. Newark, California 94560",37.53405660000,-122.032234000000
384,Shelter Network Redwood City - Redwood Family House Redwood City California,"110 Locust Street Redwood City, California 94061",37.47218704000,-122.221756000000
385,Shelter Network Menlo Park California,"260 Van Buren Road Menlo Park, California 94065",37.47626113892,-122.168922424316
386,Central County Interim Housing Program - Concord Shelter Concord California,"2047 Arnold Industrial Way Concord, California 94520",38.00595474000,-122.038215000000
387,St Vincent De Paul Homeless Help Desk San Rafael California,"822 B Street San Rafael, California 95401",37.97176361084,-122.529701232910
388,Safe Alternatives To Violent Environments Fremont California,"1900 Mowry Ave. Suite 201 Fremont, California 94538",37.55868530000,-121.979827000000
389,WeHOPE Shelter East Palo Alto California,"1858 Bay Road East Palo Alto, California 94303",37.47212810000,-122.133440000000
390,El Concillo - Shelter Network East Palo Alto California,"1798 Bay Road East Palo Alto, California 94303",37.47185897827,-122.133789062500
391,Coastside Opportunity Center El Granada California,"99 Avenue Alhambra El Granada, California 94018",37.50180054000,-122.470100000000
392,Palo Alto Opportunity Center Palo Alto California,"33 Encina Way Palo Alto, California 94301",37.43914413452,-122.160972595215
393,Heart and Home Collaborative Palo Alto California,"P. O. Box 626 Palo Alto, California 94302",37.43630190000,-122.136232200000
394,The Opportunity Center Palo Alto California,"2507-A Alma Street Palo Alto, California 94301",37.42760086000,-122.138237000000
395,Christian Help Center Vallejo California,"2166 Sacramento St Vallejo, California 94590",38.11877490000,-122.258806000000
396,Love-A-Child Missions Homeless Recovery Shelter Bay Point California,"2279 Willow Pass Road Bay Point, California 94565",38.02623600000,-121.934410000000
397,Sunrise Village Emergency Shelter Fremont California,"588 Brown Rd Fremont, California 94539",37.49480020000,-121.928137000000
398,Graduate House Shelter Mountain View California,"813 Alice Avenue Mountain View, California 94041",37.38018417358,-122.066993713379
399,CityTeam Ministries San Jose San Jose California,"2304 Zanker Road San Jose, California 95131",37.38325500488,-121.918869018555
400,City Team Ministry Rescue Mission - Community Services San Jose California,"1297 North 13th Street San Jose, California 95112",37.36504710000,-121.895719900000
401,City Team Ministry Men's Shelter San Jose California,"1174 Old Bayshore Hwyâ€¨ San Jose, California 95112",37.36473550000,-121.895878000000
402,Family Supportive Housing's San Jose Family Shelter  San Jose California,"692 N. King Road San Jose, California 95133",37.36608887000,-121.868370000000
403,Family Promise of San Gabriel Valley San Gabriel California,"1005 E Las Tunas Dr. #525 San Gabriel, California 91776",34.10375000000,-118.085840000000
404,Homeless Adult Center - Union Station  Pasadena California,"412 S. Raymond Avenue Pasadena, California 91105",34.13866806000,-118.148437000000
405,Euclid Villa Transitional Apartments Pasadena California,"154 S. Euclid Avenue Pasadena, California 91101",34.14311981201,-118.142440795898
406,A Meaningful Goal Housing Shelter Pasadena ,"Po Box 41213 Pasadena, California 91114",34.14778490000,-118.144515000000
407,Centennial Place Permanent Housing Pasadena California,"235 E. Holly Street Pasadena, California 91101",34.14806747437,-118.145545959473
408,Door of Hope Pasadena California,"P.O. Box 90455 Pasadena, California 91109",34.15526962280,-118.154258728030
409,HPRP Pasadena Homeless Services Pasadena California,"649 N. Fair Oaks Ave. Pasadena, California 91103",34.15724182129,-118.150588989258
410,Union Station Homeless Services Pasadena  California,"825 E. Orange Grove Blvd  Pasadena , California 90026",34.15844345093,-118.133422851563
411,Dolores Mission Los Angeles California,"171 S. Gless Street Los Angeles, California 90033",34.04531840000,-118.223316300000
412,Volunteers of America Homeless Support Services - Family Solution Centers (FSC) El Monte California,"4501 Santa Anita Ave El Monte, California 91731",34.08794785000,-118.028121000000
413,Back To Life Community Living House Transitional Housing Pasadena California,"280 W. Washington Blvd. Pasadena, California 91103",34.16890717000,-118.156539000000
414,ABL My Family House Pasadena California,"1385 El Sereno Ave. Pasadena, California 91103",34.16959390000,-118.152615000000
415,El Puente Bridge Housing Los Angeles California,"711 N. Alameda Street Los Angeles, California 90012",34.05499274000,-118.237805000000
416,Bell Shelter - Salvation Army Bell California,"5600 Rickenbacker Rd Bell, California 90201",33.99131012000,-118.171661000000
417,Downtown Women's Center Los Angeles California,"442 S San Pedro St Los Angeles, California 90013",34.04460300000,-118.243419900000
418,Emmanuel Baptist Rescue Mission Los Angeles California,"530 E 5th St. Los Angeles, California 90013",34.04360580000,-118.242958000000
419,Los Angeles Mission Los Angeles California,"303 East 5th Street Los Angeles, California 90013",34.04508591000,-118.245086000000
420,Union Rescue Mission Los Angeles California,"545 S San Pedro St Los Angeles, California 90013",34.04332733000,-118.245109000000
421,The Midnight Mission Los Angeles California,"601 South San Pedro Street Los Angeles, California 90014",34.04240799000,-118.245735000000
422,The People Concern Los Angeles California,"2116 Arlington Ave. Suite 100 Los Angeles, California 90018",34.04228210000,-118.246765000000
423,Good Shepherd Center for Homeless Women Los Angeles California,"1650 Rockwood St Los Angeles, California 90059",34.06666300000,-118.263550000000
424,Zahn Memorial Center - Salvation Army Los Angeles California,"832 W. James M. Wood Blvd Los Angeles, California 90015",34.04650390000,-118.264030000000
425,Casa Azul Shelter Los Angeles California,"1920 W. 3rd St.  Los Angeles, California 90057",34.06199000000,-118.271020000000
426,Ascencia - Shelter and Services Glendale California,"437 Fernando Court Glendale, California 91204",34.12862014771,-118.261413574219
427,Glendale YWCA Domestic Violence Project Glendale California,"75 E Lexington Glendale, California 91206",34.15180588000,-118.245742000000
428,Angel's Flight Youth Shelter Los Angeles California,"357 S. Westlake Ave Los Angeles, California 90057",34.06101680000,-118.272796000000
429,Salvation Army Glendale Chester Village For Homeless Families Glendale California,"320 W. Windsor Rd Glendale, California 91204",34.13637542725,-118.258697509766
430,New Life Global Development - For Homeless Veterans Altadena  California,"3323 Marengo Avenue  Altadena , California 91001",34.20086570000,-118.138047400000
431,HPRP Huntington Park - Homeless Services Huntington Park California,"2965 E. Gage Ave. Huntington Park, California 90255",33.98119354248,-118.216484069824
432,Salvation Army Hope Harbor Los Angeles Los Angeles California,"3107 S. Grand Avenue Los Angeles, California 90007",34.02234650000,-118.275322000000
433,Nancy Painter Home Transitional Housing For Women Glendale California,"609 Chester St Glendale, California 91203",34.15441500000,-118.272278000000
434,Ella's Foundation Homeless Services Los Angeles California,"3175 S. Hoover St. Suite 113 Los Angeles, California 90007",34.02585983000,-118.283981000000
435,East San Gabriel Valley Coalition For The Homeless Hacienda Heights California,"1345 Turnbull Canyon Rd.  Hacienda Heights, California 91745",34.01129531860,-117.980590820313
436,PATH Hollywood Los Angeles California,"5627 Fernwood Ave Los Angeles, California 90028",34.09625080000,-118.311890000000
437,Union Station Homeless Services - Family Solution Centers (FSC) Duarte California,"1755 E Huntington Dr Ste 103 Duarte, California 91010",34.13995600000,-117.966910000000
438,Salvation Army The Way In Drop In Shelter For Youth Los Angeles California,"5939 Hollywood Blvd Los Angeles, California 90028",34.10167313000,-118.319358000000
439,Los Angeles Youth Network Los Angeles  California,"1754 Taft Avenue Los Angeles , California 90028",34.09913254000,-118.322113000000
440,Ollie house Downey California,"8017 Cheyenne Downey, California 90242",33.91851806641,-118.155326843262
441,Good Seed Shelter - Transition Age Youth Los Angeles California,"2814 W. Martin Luther King Blvd Los Angeles, California 90008",34.01057000000,-118.323850000000
442,Friends Helping Friends LA Transitional Housing Los Angeles California,"3701 Cherrywood Ave Los Angeles, California 90018",34.01997757000,-118.329216000000
443,A Bridge Home Imperial Los Angeles California,"2316 E. Imperial Highway Los Angeles, California 90059",33.92904748271,-118.232887311380
444,Shields for Families - Family Solution Centers (FSC) Lynwood California,"11705 Deputy Yamamoto Way Ste B Lynwood, California 90262",33.92669750000,-118.228750000000
445,City of Refuge Rescue Mission Personal Good Service Los Angeles California,"823 W. Manchester Blvd. Los Angeles, California 90044",33.96040726000,-118.287750000000
446,WLCAC Homeless Access Center Watts California,"10950 S. Central Ave. Watts, California 90059",33.93651870000,-118.253560600000
447,Gardner Street Women’s Bridge Housing Center Los Angeles California,"1403 N Gardner St Los Angeles, California 90046",34.09636000000,-118.353150000000
448,Jordan's Transitional Shelter Compton California,"1616 E. Pine St. Compton, California 90221",33.90810776000,-118.205070000000
449,Sanctuary of Hope Los Angeles California,"PO Box 431038 Los Angeles, California 90043",33.99038315000,-118.328659000000
450,Jenesse Center Los Angeles California,"3761 Stocker St Los Angeles, California 90008",34.00637360000,-118.339380000000
451,"Jenesse Center, Inc. - Domestic Violence Intervention Program Los Angeles California","3761 Stocker St Los Angeles, California 90008",34.00637360000,-118.339380000000
452,Good Seed Shelter Los Angeles Los Angeles California,"6568 5th Ave Los Angeles, California 90043",33.97942700000,-118.322314000000
453,Family Promise of the Verdugos Burbank California,"PO BOX 1370  Burbank, California 91507",34.16999817000,-118.349998000000
454,At The Fountain Transitional Living INC Bellflower California,"9556 Flower St.#8 Bellflower, California 90706",33.88177108765,-118.129745483398
455,At The Fountain Transitional Living COMPTON California,"2515 N. SANTA FE AVENUE COMPTON, California 90221",33.87410354614,-118.214523315430
456,Santa Ana Armory Cold Weather Shelter Fullerton California,"612 E Warner Fullerton, California 92833",33.94335530000,-117.922540000000
457,GRCN Connecting Communities Carson California,"17625 S Central Ave Carson, California 90746",33.87073620000,-118.249070000000
458,First Southern Baptist  Buena Park California,"6801 Western Ave Buena Park, California 90621",33.86158420000,-118.003550000000
459,First Christian Church Hot Meal Program Fullerton California,"115 E. Wilshire Ave Fullerton, California 92832",33.87267150000,-117.923578200000
460,Women’s Transitional Living Center Fullerton California,"P.O. Box 916 Fullerton, California 92832",33.87035960000,-117.924296000000
461,St. Anne's Service Intensive Transitional Home Diamond Bar California,"1142 S. Diamond Bar Blvd # 146 Diamond Bar, California 91765",34.00234338000,-117.810208000000
462,Casa Youth Shelter Los Alamitos California,"10911 Reagan Street Los Alamitos, California 90720",33.80422974000,-118.069465000000
463,Precious Life Shelter Los Alamitos California,"P.O. Box 414 Los Alamitos, California 90720",33.80307007000,-118.072563000000
464,H.I.S. House (Homeless Intervention  Shelter) Placentia California,"907 N Bradford Ave Placentia, California 92870",33.88022900000,-117.868497000000
465,Long Beach Rescue Mission Services For Women and Children Lydia House Long Beach California,"1430 Pacific Ave. Long Beach, California 90803",33.78449870000,-118.193295000000
466,Illumination Foundation Stanton Multi-Service Center Stanton California,"7855 Katella Avenue Stanton, California 90680",33.80317610000,-117.995710000000
467,Long Beach Rescue Mission Samaritan House and Services for Men Long Beach California,"1335 Pacific Ave Long Beach, California 90813",33.78318787000,-118.193763000000
468,Via Esperanza - Pathways of Hope Anaheim California,"626 N Pauline St Anaheim, California 92805",33.84333090000,-117.909181600000
469,The Good Seed - Long Beach Long Beach California,"1230 Pine Ave Long Beach, California 90813",33.78182200000,-118.192202000000
470,Beyond Shelter - Homeless Services Long Beach California,"1301 W. 12th St. Long Beach, California 90813",33.78200531000,-118.209022000000
471,Inland Valley Hope Partners - Our House Shelter   Pomona California,"1753 N. Park Pomona, California 91768",34.07725840000,-117.752845000000
472,New Image Emergency Shelter Long Beach ,"401 E Ocean Blvd Suite 202 Long Beach, California 90802",33.76718521000,-118.187286000000
473,Doors Of Hope Women's Shelter Wilmington California,"529 Broad Ave Wilmington, California 90744",33.77661895752,-118.260879516602
474,Beacon Light Mission Wilmington California,"525 Broad Ave Wilmington, California 90744",33.77649689000,-118.261207000000
475,Los Angeles Shelter for Homeless and Pregnant Women and Girls LOS ANGELES California,"145 E 935 SO LOS ANGELES, California 90024",33.77561500000,-118.262671000000
476,Salvation Army Anaheim Emergency Shelter Anaheim California,"1300 S Lewis St Anaheim, California 92805",33.81542000000,-117.897100000000
477,Thomas House Family Shelter Garden Grove California,"P.O. Box 2737 Garden Grove, California 92842",33.77390530000,-117.941447000000
478,Santa Ana Lakewood Housing Coalition Anaheim California,"2400 Katella Ave Anaheim, California 92806",33.80439500000,-117.882344000000
479,Casa Teresa Orange California,"P.O Box 429 Orange, California 92856",33.79000092000,-117.879997000000
480,American Family Housing Midway City California,"15161 Jackson St Midway City, California 92655",33.74242450000,-117.988106700000
481,House of Hope Inc. San Pedro California,"235 W 9th St San Pedro, California 90731",33.73583020000,-118.282171100000
482,Shawl House San Pedro California,"936 S. Centre St San Pedro, California 90731",33.73538090000,-118.283281000000
483,"The Women's Transitional Living Center, Inc. Orange California","P.O. Box 6103 Orange, California 92863",33.80601790000,-117.835584600000
484,Harbor Rose Lodge San Pedro California,"1400 S. Gaffey St. Annex  San Pedro, California 90731",33.73228836060,-118.293586730957
485,Colette's Children's Home Huntington Beach California,"7372 Prince Drive #106 Huntington Beach, California 92647",33.71793000000,-117.999590000000
486,WISEPlace - For Women Santa Ana California,"1411 N. Broadway Santa Ana, California 92706",33.75707780000,-117.868965000000
487,Grandma's House of Hope - For Women and Children Santa Ana California,"1505 E. 17th Street #116  Santa Ana, California 92705",33.76042450000,-117.847046000000
488,Grandma's House of Hope Santa Ana California,"1505 E. 17th St. Suite 116 Santa Ana, California 92705",33.76026000000,-117.846930000000
489,Mercy House Santa Ana California,"P.O. Box 1905 Santa Ana, California 92702",33.74557310000,-117.867833000000
490,Santa Ana Hospitality House - Salvation Army Santa Ana California,"818 E. 3rd Street Santa Ana, California 92701",33.74689102000,-117.859458000000
491,Orange County Catholic Worker - Isaiah House Santa Ana California,"316 South Cypress Avenue Santa Ana, California 92701",33.74282430000,-117.866659000000
492,Santa Ana Armory Cold Weather Shelter Santa Ana California,"612 E. Warner Santa Ana, California 92707",33.71559660000,-117.861999200000
493,Orange County Rescue Mission Tustin California,"One Hope Drive Tustin, California 92782",33.75049973000,-117.769584000000
494,Tustin Temporary Emergency Shelter Tustin California,"2345 Barranca Parkway Tustin, California 92782",33.69821483000,-117.831228000000
495,StandUp For Kids  Irvine California,"PO Box 14398 Irvine, California 92623",33.68456730000,-117.826504900000
496,Human Options - Emergency Shelter Women Irvine California,"5540 Trabuco Rd Irvine, California 92620",33.69680786000,-117.764862000000
497,Belinda's Place Lakeside California,"13221 Idyl Drive Lakeside, California 92040",32.84572982788,-116.908096313477
498,East County Transitional Living Center El Cajon California,"1527 E Main St. El Cajon, California 92021",32.80461883545,-116.925430297852
499,Anthony's House Spring Valley California,"10330 Elmdale Dr. Spring Valley, California 91977",32.71884155273,-116.976654052734
500,Urban Street Angels at Mission Gathering Church San Diego ,"4090 Polk Street San Diego, California 92104",32.75149900000,-117.107138300000
501,San Diego Residential Substance Abuse Recovery San Diego California,"3806 Grim Ave San Diego, California 92104",32.74758911000,-117.128349000000
502,Residential Treatment Recovery Housing San Diego California,"3806 Grim Ave San Diego, California 92104",32.74758911133,-117.128349304199
503,San Diego Maternity Shelter San Diego California,"5005 Texas Street Suite 203 San Diego, California 92108",32.76655197000,-117.138946000000
504,South Bay Community Services Chula Vista California,"430 F Street Chula Vista, California 91910",32.63952730000,-117.085010000000
505,"The Salvation Army, Sierra Del Mar Division Homeless Outreach San Diego California","299 17th Street San Diego, California 92101",32.70791244507,-117.148437500000
506,Cortez Hill Family Center San Diego California,"1449 Ninth Ave San Diego, California 92101",32.72035167000,-117.156450000000
507,San Diego Travelers Aid Society San Diego California,"1501 Imperial Ave San Diego, California 92101",32.70617294312,-117.150169372559
508,St. Vincet de Paul Village San Diego California,"1501 Imperial Ave San Diego, California 92102",32.70597670000,-117.150098200000
509,Rachel's Night Shelter For Women - Catholic Charities San Diego California,"759 Eighth Avenue San Diego, California 92101",32.71336746216,-117.157302856445
510,Catholic Charities Diocese of San Diego San Diego California,"349 Cedar Street  San Diego, California 92101",32.72174835000,-117.161445000000
511,Nueva Vida Haven Emergency Shelter for Women and Children San Diego California,"120 Elm Street San Diego, California 92101",32.72416305542,-117.163566589356
512,San Diego Rescue Mission Men's Center Long Term San Diego California,"120 Elm Street San Diego, California 92101",32.72416305542,-117.163566589356
513,New Resolve Residential Program Transitional Substance Abuse Program Escondido California,"1207 South Escondido Boulevard Escondido, California 92025",33.11015701294,-117.077194213867
514,Hidden Valley House  Escondido California,"not disclosed Escondido, California 92025",33.12691497800,-117.075057983000
515,Merleâ€™s Place Transitional Housing San Diego California,"550 W. Washington Ave.  # B San Diego, California 92025",33.12480100000,-117.091587200000
516,Inland Service Center Escondido California,"550 West Washington Ave Escondido, California 92025",33.12489319000,-117.091590000000
517,Tikkun Home Temporary Emergency Shelter Women Escondido California,"550 West Washington Ave Ste B Escondido, California 92025 ",33.12489318848,-117.091590881348
518,Escondido Family Services Salvation Army Escondido California,"1301 Las Villas Way Escondido, California 92026",33.13785934448,-117.093841552734
519,Build Futures Huntington Beach California,"18822 Beach Blvd #211 Huntington Beach, California 92648",33.67819630000,-118.012753000000
520,Off The Streets - Huntington Beach Huntington Beach California,"419 Main Street Suite 49 Huntington Beach, California 92648",33.66069290000,-117.999168000000
521,Robyne's Nest Huntington Beach California,"412 Olive Avenue #164 Huntington Beach, California 92648",33.65931330000,-118.000420000000
522,Settlement House Corona California,"507 S. Vicentia Ave Corona, California 92882",33.87729760000,-117.574868000000
523,Corona Norco Rescue Mission Corona California,"420 W Harrison St Corona, California 92880",33.88525391000,-117.569290000000
524,Catholic Charities Ontario Ontario California,"904 E. California Street Ontario, California 91761",34.05549770000,-117.636314000000
525,Friendship Shelter Laguna Beach California,"PO Box 4252 Laguna Beach, California 92652",33.54410620000,-117.784196000000
526,Foothill Family Shelter Upland California,"1501 W. 9th St. Ste. D Upland, California 91786",34.09637832642,-117.679779052734
527,Laura's House Ladera Ranch California,"999 Corporate Drive Ste 225 Ladera Ranch, California 92694",33.55640090000,-117.629984000000
528,Good News Rescue Mission Redding California,"2842 S. Market Street Redding, California 96001",40.57002700000,-122.388360000000
529,P.A.T.H. Homeless Outreach Center Red Bluff California,"440 Antelope Blvd suite 20 Red Bluff, California 96080",40.18678000000,-122.211355000000
530,ATCAA Jackson California,"10590 Highway 88 Jackson, California 95642",38.35305470000,-120.836484900000
531,Don Brown Shelter - Anka Behavioral Health Antioch California,"1401 West 4th Street Antioch, California 94509",37.99620056000,-121.810997000000
532,Shepherd's Gate - Brentwood Brentwood California,"605 Sycamore Dr Brentwood, California 94513",37.94004822000,-121.686935000000
533,Shepherd's Gate - Livermore Livermore California,"1660 Portola Avenue Livermore, California 94551",37.69304657000,-121.779075000000
534,"Mission Solano Rescue Mission, Inc Fairfield  California","310 Beck Ave Fairfield , California 94533",38.23301220000,-122.065990000000
535,Tri-Valley Haven For Women Livermore California,"3663 Pacific Avenue Livermore, California 94550",37.67596436000,-121.754089000000
536,God's Love Outreach Ministries Livermore California,"851 Rincon Ave Livermore, California 94551",37.67298126000,-121.754371000000
537,Emerson House - Transitional Housing TRACY California,"26 W. Emerson Ave TRACY, California 95376",37.74854660000,-121.426513000000
538,Opportunity House Vacaville California,"267 Bennett Hill Ct Vacaville, California 95688",38.36617279053,-121.976539611816
539,Visionary Homes San Bernardino California,"3171 North Sierra Way San Bernardino, California 92404",34.14896011353,-117.284698486328
540,San Bernardino Salvation Army Corps   Highland ,"2626 Pacific Street Highland,  92346",34.12961000000,-117.230000000000
541,Time for Change Foundation for Homeless Women and Children San Bernardino California,"2164 N Mountain View Ave San Bernardino, California 92405",34.13533360000,-117.289892000000
542,Central City Lutheran Mission San Bernardino California,"1354 N G St San Bernardino, California 92405",34.12448320000,-117.299120000000
543,Guided Steps Transitional Homes San Bernardino California,"Po Box 916 San Bernardino, California 92402",34.10843658450,-117.291603088000
544,Operation Grace San Bernardino California,"1595 E. Art Townsend Drive San Bernardino, California 92408",34.10187500000,-117.254114700000
545,Veronica's Home of Mercy San Bernardino California,"1495 W Victoria St San Bernardino, California 92411",34.11093510000,-117.318083000000
546,Homeless Services Center Santa Cruz California,"115B Coral St  Santa Cruz, California 95060",36.98514175000,-122.030281000000
547,Pajaro Valley Shelter Services Watsonville California,"115 Brennan St. Watsonville, California 95076",36.91482544000,-121.759071000000
548,The Salvation Army Watsonville CA Watsonville California,"214 Union Street Watsonville, California 95076",36.90910990000,-121.753636100000
549,Pajaro Rescue Mission Watsonville California,"111 Railroad Ave. Watsonville, California 95076",36.89725113000,-121.739913000000
550,Community Solutions Transitional Housing Program (THP) Morgan Hill California,"16264 Church Street #103 Morgan Hill, California 7130",37.11786600000,-121.642550000000
551,HomeFirst Boccardo Family Living Center San Jose California,"13545 Monterey Road San Jose, California ",37.08356857000,-121.608398000000
552,La Isla Pacifica Shelter For Women and Children Gilroy California,"6980 Chestnut Street Gilroy, California 95020",37.00161500000,-121.558760000000
553,"County of Santa Clara, Office of Supportive Housing San Jose California","3180 Newberry Drive Suite 150 San Jose, California 95118",37.27316000000,-121.880180000000
554,Community Homeless Solutions Marina California,"3087 Wittenmyer Ct Marina, California 93933",36.67267783000,-121.774718000000
555,Asian Women's Home San Jose California,"240 Moorpark Ave. Ste. 300 San Jose, California 95128",37.31610107000,-121.944900000000
556,Sacred Heart Community Services San Jose California,"1381 S 1st St San Jose, California 95110",37.31686900000,-121.874507000000
557,United States Mission Transitional Housing San Jose San Jose California,"420 S. 5th St. San Jose, California 95112",37.33189011000,-121.881156000000
558,InnVision: Cecil White Center San Jose California,"358 N. Montgomery St. San Jose, California 95110",37.33629227000,-121.904129000000
559,Montgomery Street Inn Shelter San Jose California,"358 N. Montgomery Suite B San Jose, California 95110",37.33684480000,-121.904130000000
560,Heritage Home Shelter - CityTeam Ministries San Jose California,"435 North Third Street San Jose, California 95112",37.33768463000,-121.888870000000
561,HomeFirst Program San Jose San Jose California,"2011 Little Orchard St San Jose, California 95125",37.34038162000,-121.892181000000
562,Casa de Clara San Jose Catholic Worker San Jose California,"318 N. 6th St. San Jose, California 95112",37.34363174000,-121.888702000000
563,Salvation Army Emmanuel House San Jose California,"405 N. 4th St. San Jose, California 95112",37.34440994000,-121.892585000000
564,Natividad Emergency Shelter Salinas California,"undisclosed location Salinas, California 93906",36.67773720000,-121.655500000000
565,"Victory Mission, Inc. Salinas California","43 Soledad St Salinas, California 93901",36.67838030000,-121.652003000000
566,Seaside Women's Shelter Seaside California,"undisclosed location Seaside, California 93955",36.61492170000,-121.822098000000
567,Next Door Solutions to Domestic Violence San Jose California,"1181 N. 4th St. Ste. A San Jose, California 95112",37.35990524292,-121.904129028320
568,Commercial Street Inn San Jose California,"260 Commercial Street San Jose, California 95112",37.35996628000,-121.900749000000
569,InnVision: Georgia Travis Center San Jose California,"297 Commercial St San Jose, California 95112",37.36072922000,-121.900474000000
570,Arcata House Arcata California,"1005 11th Street Arcata, California 95521",40.87096405029,-124.088500976563
571,Eureka Mission Men's Emergency Overnight Shelter Eureka California,"110 2nd Street Eureka, California 95501",40.80363464355,-124.170433044434
572,Women and Children's Emergency Overnight Shelter Eureka California,"107 3rd St. Eureka, California 95501",40.80329132080,-124.170349121094
573,YSB Our House Shelter Eureka California,"904 G Street Eureka, California 95501",40.79852294922,-124.164382934570
574,40 Prado Road San Luis Obispo California,"40 Prado Road San Luis Obispo, California 93401",35.25608750000,-120.672026830000
575,Central Coast Rescue Mission Substance Abuse And Homeless Services Santa Maria California,"1207 N. McClelland Street Santa Maria, California 93454",34.96424484000,-120.433525000000
576,Santa Maria Emergency Shelter Campus Santa Maria California,"401 W. Morrison Ave Santa Maria, California 93458",34.94317500000,-120.441013000000
577,Auburn Temporary Homeless Shelter Auburn California,"11442 E Street Auburn, California 95603",38.93613089000,-121.104350000000
578,Rancho Cordova HART Rancho Cordova California,"11223 Trinity River Dr Rancho Cordova, California 95670",38.62424860000,-121.267688000000
579,Hospitality House Grass Valley California,"1262 Sutton Way Grass Valley, California 95945",39.23992850000,-121.033126000000
580,Volunteers of America Housing and Shelter Services Sacramento Sacramento California,"3434 Marconi Avenue Sacramento, California 95821",38.61743120000,-121.384416200000
581,Volunteers of America - Open Arms Sacramento California,"1900 Point West Way  #270 Sacramento, California 95815",38.59944916000,-121.432235000000
582,Next Move Sacramento Area Emergency Housing Center Sacramento California,"4516 Parker Ave Sacramento, California 95820",38.53497990000,-121.453550000000
583,The Mission At Kern County Bakersfield California,"816 E. 21st Street Bakersfield, California 93305",35.37537766000,-118.991493000000
584,Bakersfield Homeless Center Bakersfield California,"1600 East Truxtun Ave Bakersfield, California 93305",35.37307739000,-118.978775000000
585,Transitional Housing Center Bakersfield Bakersfield California,"100 & 102 Plymouth Ave Bakersfield, California 93308",35.40538990000,-119.025191000000
586,California Veterans Assistance  Bakersfield Bakersfield California,"731 Decatur Street Bakersfield, California 93308",35.41248600000,-119.036611000000
587,Gilchrist House - Family Assistance Ministries San Clemente California,"929 Calle Negocio Suite G San Clemente, California 92673",33.42697144000,-117.611991000000
588,The Salvation Army South County Family Services San Clemente California,"616 South El Camino Real San Clemente, California 92672",33.42444611000,-117.610137000000
589,Valley Restart Shelter Hemet California,"200 E Menlo Ave Hemet, California 92546",33.75879930000,-116.970934000000
590,Salvation Army Emergency Shelter Hemet California,"340 S. Palm Avenue Hemet, California 92543",33.74332000000,-116.979740000000
591,Our House Youth Shelter Redlands California,"940 Stillman Ave Redlands, California 92374",34.06127166748,-117.168823242188
592,Salvation Army Cold Weather Shelter Redlands California,"838 Alta St. Redlands, California 92374",34.06376266000,-117.181083000000
593,New Hope Village Inc Barstow California,"100 West Fredricks Street Barstow, California 92311",34.89635890000,-117.027930000000
594,Haley House - Desert Sanctuary Inc Barstow California,"P.O. Box 1781 Barstow, California 92311",34.89579570000,-117.017282600000
595,South Napa Shelter Napa California,"100 Hartle Court Napa, California 94559",38.28358100000,-122.279626000000
596,The Salvation Army Napa Napa California,"590 Franklin St Napa, California 94558",38.29469299000,-122.286911000000
597,Community Shelter Program Riverside - Path of Life Ministries Riverside California,"2840 Hulen Place Riverside, California 92507",33.98720100000,-117.353542000000
598,Path of Life Ministries Family Shelter Riverside California,"2530 Third St Riverside, California 92507",33.98261800000,-117.362149000000
599,Set Free Ranch Lake Elsinore Lake Elsinore California,"18569 Grand Ave Lake Elsinore, California 92530",33.62773600000,-117.328867000000
600,Temecula Murrieta Rescue Mission Temecula California,"40810 County Center Dr Temecula, California 92591",33.52869200000,-117.159450000000
601,Project TOUCH Temecula California,"42036 Moraga Rd Temecula, California 92590",33.52701880000,-117.172278000000
602,Community Resource Center Puente Pescadero California,"620 North Street Pescadero, California 94060",37.25603103638,-122.378158569336
603,COTS Family Center Petaluma Petaluma California,"1500 Petaluma Blvd. S Petaluma, California 94952",38.22649580000,-122.619948600000
604,I Care Shelter Home Riverside California,"4065 Van Buren Blvd Riverside, California 92503",33.92549580000,-117.449540000000
605,COTS Mary Isaak Center Petaluma California,"900 Hopper St Petaluma, California 94952",38.25664520000,-122.787818000000
606,The Living Room Day Shelter For Women Santa Rosa California,"1207 Cleveland Avenue Santa Rosa, California 95404",38.44720900000,-122.726838000000
607,Redwood Gospel Mission Rescue Mission Santa Rosa California,"101 6th St Santa Rosa, California 95401",38.43903850000,-122.721525600000
608,Catholic Charities Homeless Services Center Santa Rosa California,"600 Morgan St Santa Rosa, California 95401",38.44056702000,-122.719764000000
609,Family Support Center Santa Rosa California," 465 A Street Santa Rosa, California 95401",38.44097500000,-122.719111000000
610,Community Support Network Opportunity House Santa Rosa California,"634 Pressley St.  Santa Rosa, California 95404",38.42773819000,-122.709350000000
611,The SAY Dream Center For Youths Santa Rosa California,"3440 Airway Dr Suite E Santa Rosa, California 95403",38.47559356689,-122.737442016602
612,"Meema's House, Inc. Santa Rosa California","PO Box 3113 Santa Rosa, California 95402",38.43997540000,-122.710764000000
613,Sloan House Women's Emergency Shelter Santa Rosa California,"not disclosed. Santa Rosa, California 95404",38.44610595703,-122.709419250490
614,The Rose - Women with Children Emergency Shelter Santa Rosa California,"101 6th St Santa Rosa, California 95403",38.48102951000,-122.729431000000
615,InterFaith Shelter Network Santa Rosa California,"2455 Bennett Valley Road Santa Rosa, California 95404",38.43443100000,-122.691998000000
616,Our Lady of Guadalupe Men's Shelter Calexico California,"545 Encinas Avenue Calexico, California 92231",32.67142486572,-115.488716125488
617,Calexico Housing Authority Transitional Homeless Housing Calexico California,"1006 East Fifth St Calexico, California 92231 ",32.66979217529,-115.483703613281
618,Bridgehouse Homeless Shelter Lompoc California,"2025 Sweeney Rd Lompoc, California 93436",34.64369965000,-120.427047000000
619,Lighthouse for Women & Children Oxnard California,"150 N. Hayes Ave Oxnard, California 93030",34.20383550000,-119.175018000000
620,Ventura County Rescue Mission Oxnard California,"234 E. 6th Street Oxnard, California 7117",34.19586182000,-119.175369000000
621,Our Place Shelter Ventura California,"536 E. Thompson Boulevard Ventura, California 93001",34.27804530000,-119.292497500000
622,Ventura Transitional Living Center - Salvation Army Ventura California,"155 S. Oak Street Ventura, California 93001",34.27883530000,-119.294982000000
623,Project Understanding Homeless to Home (H2H) Ventura California,"43 E. Vince St. Ventura, California 93001",34.29420852661,-119.296188354492
624,Interfaith Community Services Coastal Service Center Oceanside California,"4700 North River Road Oceanside, California 92057",33.24562220000,-117.309189000000
625,Bread of Life Winter Rescue Mission Oceanside California,"1919 Apple Street Ste I Oceanside, California 92054 ",33.19500732422,-117.356529235840
626,La Posada de Guadalupe Shelter Carlsbad California,"2476 Impala Dr Carlsbad, California 90101",33.13982990000,-117.268090000000
627,Operation HOPE - Vista Vista  California,"859 East Vista Way  Vista , California 92084",33.21051407000,-117.233650000000
628,My Father's House Hollister California,"910 Monterey St Hollister, California 95023",36.84612670000,-121.404518400000
629,HOME Resource Center Hollister California,"1161 San Felipe Rd Hollister, California 95023",36.87345930000,-121.402230000000
630,Casa Esperanza Santa Barbara California,"816 Cacique St Santa Barbara, California 93103",34.41899490356,-119.676712036133
631,Santa Barbara Casa Esperanza Homeless Center Santa Barbara California,"816 Cacique Street Santa Barbara, California 93103",34.41914400000,-119.676986000000
632,Santa Barbara Rescue Mission Santa Barbara California,"535 E. Yanonali Street Santa Barbara, California 93103",34.41896400000,-119.684315000000
633,Transition House Santa Barbara California,"425 E Cota St Santa Barbara, California 93101",34.42289100000,-119.691286000000
634,Santa Barbara Hospitality House - Salvation Army Santa Barbara California,"423 Chapala Street Santa Barbara, California 93101",34.41526031494,-119.696449279785
635,Domestic Violence Solutions - The Shelter Program Santa Barbara California,"P.O. Box 1536 Santa Barbara, California 93102",34.42160240000,-119.698259000000
636,Mary Stuart Rogers Center - Shelter From The Storm Palm Desert California,"73-550 Alessandro Dr. Suite 103 Palm Desert, California 92260",33.72272200000,-116.379410000000
637,Mama's House Palm Desert California,"PO Box 1816 Palm Desert, California 92260",33.69172668457,-116.407585144043
638,Martha's Village & Kitchen Indio California,"83791 Date Ave Indio, California 92201",33.71035385000,-116.204498000000
639,Coachella Valley Rescue Mission Indio ,"47470 Van Buren St Indio, California 92201",33.70446370000,-116.198470000000
640,Wallace House Cloverdale California,"126 North Main Street Cloverdale, California 95425",38.80702209000,-123.016311000000
641,Modesto Gospel Mission Modesto California,"1400 Yosmite Blvd. Modesto, California 95353",37.63776398000,-120.972511000000
642,Salvation Army Berberian Homeless Shelter and Transitional Living Center Modesto California,"320 Ninth Street Modesto, California 95351",37.63375854000,-120.993591000000
643,Hutton House Modesto California,"201 Jennie Street  Modesto, California 95354",37.63847351000,-120.987243000000
644,Haven Women's Center Modesto California,"618 13th St Modesto, California 95354",37.63946490000,-120.993290000000
645,Community Housing & Shelter Services Modesto California,"708 H Street Suite B Modesto, California 95354",37.63653564000,-121.000267000000
646,Family Promise of Greater Modesto Modesto California,"2301 Woodland Ave Ste 7 Modesto, California 95358",37.65402222000,-121.041824000000
647,Children's Crisis Center Turlock California,"not provided Turlock, California 95353",37.49528121948,-120.846717834470
648,Turlock Gospel Mission Shelter Turlock California,"1030 East Avenue Turlock, California 95380",37.49245452881,-120.840675354004
649,H.O.S.T. (Helping Others Sleep Tonight) Patterson California,"405 S. 4th St. Patterson, California 95363",37.46598434000,-121.128227000000
650,Stockton Shelter for the Homeless Stockton California,"411 S. Harrison  Stockton, California 95203",37.94696426000,-121.297874000000
651,Jesus Center Chico California,"1297 Park Ave Chico, California 95928",39.72350311000,-121.830276000000
652,Torres Community Shelter Chico California,"101 Silver Dollar Way Chico, California 95928",39.72030640000,-121.809280000000
653,The Celebration House  Paradise ,"101 Skyway Ave Paradise, California 95969",39.75384970000,-121.628656000000
654,Oroville Rescue Mission Men's Shelter - Timothy House Oroville California,"4250 Lincoln Blvd. Oroville, California 95966",39.49141650000,-121.551205000000
655,Oroville Rescue Mission Women's Shelter Oroville California,"4250 Lincoln Blvd Oroville, California 95966",39.49141650000,-121.551205000000
656,Decision Home of Fresno Fresno California,"805 N. Echo Ave Fresno, California 93728",36.75336838000,-119.804367000000
657,Evangel Home Fresno California,"137 N. Yosemite Fresno, California 93701",36.74475860596,-119.801765441895
658,Fresno Rescue Mission Fresno California,"310 G Street Fresno, California 93706",36.72465896606,-119.786247253418
659,Poverello House Fresno California,"412 F Street Fresno, California 93706",36.72513961792,-119.788612365723
660,Naomi's House Fresno California,"445 F St #3410 Fresno, California 93777",36.72509000000,-119.789520000000
661,Open Gate Ministries Family Shelter Dinuba California,"511 North K Street Dinuba, California 93618 ",36.54539108276,-119.393981933594
662,Union Gospel Mission Sacramento California,"400 Bannon St Sacramento, California 95814",38.59525681000,-121.497581000000
663,St. John's Shelter Program for Women and Children Sacramento California,"undisclosed location Sacramento, California ",38.57944107056,-121.490852355960
664,Salvation Army Shelter Emergency Lodge Sacramento Sacramento California,"1200 N B St Sacramento, California 95811",38.59001970000,-121.485566000000
665,Francis House Center Family Shelter Sacramento California,"1422 C Street Sacramento, California ",38.58600530000,-121.483790000000
666,Sacramento Loaves & Fishes Sacramento California,"1351 North C Street Sacramento, California 95811",38.59104000000,-121.482250000000
667,Porterville CA Womens Shelter Porterville California,"770 North Main Street Porterville, California 93277",36.07978439331,-119.019134521484
668,Visalia Rescue Mission Visalia California,"500 E Race Ave Visalia, California 93292",36.33577347000,-119.287330000000
669,Kings Gospel Mission Men's Shelter Hanford California,"805A W. 7th Street Hanford, California 93230",36.32484100000,-119.656959000000
670,Kings Gospel Mission Women's Shelter Hanford California,"807 West 7th Street Hanford, California 93230",36.32483700000,-119.657145000000
671,Lighthouse Rescue Mission Women and Children Shelter Tulare California,"111 West Kern Street Tulare, California 93274 ",36.20610427856,-119.349205017090
672,Hands of Hope Yuba City California,"909 Spiva Ave Yuba City, California 95991",39.13566383000,-121.628057330000
673,Hospitality House  Fort Bragg California,"P.O. Box 2168 Fort Bragg, California 95437",39.44572448730,-123.805290222168
674,HPRP Lancaster - Homeless Assistance Lancaster California,"44933 N. Fern Ave.  Lancaster, California 93534",34.69828796000,-118.144668000000
675,Guiding Light Awareness  Lancaster California,"1321 w Ivesbrook st Lancaster, California 93534",34.70307000000,-118.154110000000
676,Antelope Valley Access Center - Homeless Solutions Access Center Lancaster California,"45134 N. Sierra Hwy.  Lancaster, California 93534",34.70286179000,-118.137611000000
677,Valley Oasis Shelter Lancaster California,"43434 E. Sahuayo St. Lancaster, California 93535",34.67239000000,-118.127540000000
678,Women's Center - High Desert Ridgecrest California,"134 South China Lake Boulevard Ridgecrest, California 93555",35.62133407593,-117.669540405273
679,Friends In Service Helping (FISH) Carson City Nevada,"138 East Long Street Carson City, Nevada 89706",39.17418289000,-119.766288000000
680,Launching Pad Empowerment Center Reno Nevada,"7400 South Virginia Street Reno, Nevada 89511",39.45990372000,-119.780845000000
681,Reno-Sparks Gospel Mission Reno Nevada,"355 Record Street Reno, Nevada 89512",39.52455521000,-119.811645000000
682,St. Vincent's Transitional Center Reno Nevada,"275 East Fourth Street Reno, Nevada ",39.53072738647,-119.810745239258
683,St. Vincent's Center Reno Nevada,"500 East Fourth Street Reno, Nevada 89512",39.53080750000,-119.807258000000
684,Casa de Vida Reno Nevada,"1290 MIll St Reno, Nevada 89502",39.52342690000,-119.794070000000
685,The Salvation Army Community Center Reno Nevada,"1931 Sutro Reno, Nevada 89512",39.52752686000,-119.799751000000
686,Reno Housing Authority Reno Nevada,"1525 East 9th Street Reno, Nevada 89512",39.53863906860,-119.793739318848
687,Hosanna Home Women's Transitional Shelter Sparks Nevada,"PO Box 51316 Sparks, Nevada 89435",39.54000091553,-119.750000000000
688,Lane Street Effort Yreka California,"417 Lane St Yreka, California 96097",41.73076629639,-122.638923645020
689,Albany Helping Hands Albany Oregon,"619 Ninth Avenue Albany, Oregon 97322",44.63226660000,-123.096410000000
690,ChristWalk Supportive Transitional Housing Lebanon Oregon,"145 West Ash St Lebanon, Oregon 97355",44.54032135010,-122.908935546875
691,Salem Interfaith Hospitality Network Salem Oregon,"1055 Edgewater St NW Salem, Oregon 97304",44.94206960000,-123.054980000000
692,Union Gospel Mission of Salem Oregon Salem Oregon,"345 Commercial Street NE  Salem, Oregon 97301",44.94319980000,-123.039570000000
693,Lighthouse Shelter Salem Oregon Salem Oregon,"1901 Front Street NE  Salem, Oregon  9730",44.95871810000,-123.034522000000
694,Moving Forward Towards Independence  Salem Oregon,"4955 Oak Park Dr  NE  Salem, Oregon 97305",44.96767000000,-122.961330000000
695,Medford Gospel Mission Medford Oregon,"125 West Jackson St Medford, Oregon 97501",42.33108139000,-122.880195000000
696,Hearts With a Mission Medford Oregon,"521 Edwards St Medford, Oregon 97501",42.33562469000,-122.875991000000
697,Salvation Army Medford Medford Oregon,"304 Beatty St Medford, Oregon 97501",42.33561325073,-122.877685546875
698,St. Anthony Shelter - Shelter For Women Medford Oregon,"2424 N. Pacific Hwy. Medford, Oregon 97501",42.34870529175,-122.888473510742
699,THE House Coos Bay Coos Bay Oregon,"745 Koos Bay Blvd Coos Bay, Oregon 97420",43.37846755981,-124.220176696777
700,South Coast Gospel Mission Coos Bay Oregon,"1999 N 7th St Coos Bay, Oregon 97420",43.38241577148,-124.222320556641
701,South Coast Gospel Mission Coos Bay Oregon,"1999 N. 7th St Coos Bay, Oregon 97420",43.38241577148,-124.222320556641
702,Grandma's House of Central Oregon Bend Oregon,"PO Box 6372 Bend, Oregon 97708",44.06999969482,-121.300003051758
703,Bethlehem Inn Bend Oregon,"3705 N Hwy 97 Bend, Oregon 97701",44.08792495728,-121.307250976563
704,St. Joseph's Shelter Mt. Angel Oregon,"925 S. Main St. Mt. Angel, Oregon 97362",45.06163788000,-122.803154000000
705,Warming Center Myrtle Creek Oregon,"1242 N E Spruce Ave Myrtle Creek, Oregon 97457",43.03205871582,-123.281661987305
706,Roseburg Dream Center Drop In Center Roseburg Oregon,"433 SE Main St Roseburg, Oregon 97470",43.21006774902,-123.342483520508
707,First Place Family Shelter Eugene Oregon,"1995 Amazon Parkway Eugene, Oregon ",44.03791809082,-123.089485168457
708,ShelterCare Center for Programs & Services Eugene Oregon,"499 W. 4th Ave. Eugene, Oregon 97401",44.04758072000,-123.119766000000
709,The Eugene Mission Eugene Oregon,"1542 West 1st Avenue Eugene, Oregon 97402",44.05867004000,-123.116050000000
710,Looking Glass Eugene Oregon,"2485 Roosevelt Blvd Eugene, Oregon ",44.06386566162,-123.132301330566
711,Eugene Service Station Eugene Oregon,"450 Highway 99 North Eugene, Oregon 97402",44.06628036499,-123.139381408691
712,Egan Warming Center - Cold Weather Shelter Eugene Oregon,"456 Hwy 99N Eugene, Oregon 97402",44.06634521484,-123.139442443848
713,Bosco House Eugene Oregon,"4488 Knoop ave. Eugene, Oregon 97402",44.07197952271,-123.172630310059
714,Grants Pass Gospel Rescue Mission Grants Pass Oregon,"540 SW Foundry Grants Pass, Oregon 97526",42.44083405000,-123.333129000000
715,Klamath Falls Gospel Mission Shelter Klamath Falls Oregon,"823 Walnut Ave Klamath Falls, Oregon 97601",42.22557449341,-121.779258728027
716,Family Promise of LIncoln County Lincoln City Oregon,"5030 SE Hwy 101 Lincoln City, Oregon 97367",44.92866897583,-124.015151977539
717,Samaritan House Inc Newport Oregon,"715 Sw Bay St  Newport, Oregon 97365-5161 ",44.62875747681,-124.062576293945
718,Redemption House Prineville Oregon,"780 E 1st street Prineville, Oregon 97754",44.30080795288,-120.838844299316
719,Pendleton Warming Station Pendleton Oregon,"715 SE Court Ave Pendleton, Oregon 97801",45.67424290000,-118.782065000000
720,Salvation Army Food Bags Henderson Henderson Nevada,"830 East Lake Mead Pkwy Henderson, Nevada 89015",36.05236000000,-114.968500000000
721,Nevada Partnership For Homeless Youth Las Vegas Nevada,"4981 Shirley St Las Vegas, Nevada 89119",36.09958440000,-115.142790000000
722,"Innovative Concept Transitional Housing,Inc. Las Vegas Nevada","1601 Sandhill Road  Las Vegas, Nevada 89104",36.15370178223,-115.094551086426
723,Women's Development Center Las Vegas Nevada,"953 E. Sahara Suite 201 Las Vegas, Nevada ",36.14384460449,-115.142189025879
724,Family Promise of Las Vegas Las Vegas Nevada,"1410 Maryland Parkway Las Vegas, Nevada 89104",36.16401672000,-115.138633000000
725,Courtyard Homeless Resource Center Las Vegas Nevada,"1401 Las Vegas Blvd N Las Vegas, Nevada 89101",36.18558050000,-115.134581330000
726,Catholic Charities Shelter for Men Las Vegas Las Vegas Nevada,"1502 Las Vegas Blvd North Las Vegas, Nevada 89101",36.18614195981,-115.134105712870
727,Las Vegas Rescue Mission Las Vegas Nevada,"480 W Bonanza Rd Las Vegas, Nevada 89106",36.17740249634,-115.147743225098
728,The Shade Tree For Women North Las Vegas Nevada,"1 West Owens North Las Vegas, Nevada 89030",36.18812180000,-115.136756000000
